id_free_place,latitude,longitude,complete_address,postal_code,country,community of spain,province,address,city,district,madrid_district_URI_from_wikidata
FreePlace1,-3.6703816,40.4626466,"'28016,ES,Madrid,Madrid,Calle de Santa maría magdalena 16,Madrid'",28016,ES,Madrid,Madrid,Calle de Santa maría magdalena 16,Madrid,Chamartín,https://wikidata.org/entity/Q1766348
FreePlace2,-3.6698983,40.4822616,"'28033,ES,Madrid,Madrid,Calle de Caleruega 68,Madrid'",28033,ES,Madrid,Madrid,Calle de Caleruega 68,Madrid,Ciudad Lineal,https://wikidata.org/entity/Q1763694
FreePlace3,-3.682395,40.47662,"'28046,ES,Madrid,Madrid,Calle de Mauricio legendre 38D,Madrid'",28046,ES,Madrid,Madrid,Calle de Mauricio legendre 38D,Madrid,Chamartín,https://wikidata.org/entity/Q1766348
FreePlace4,0.0,0.0,"'28909,ES,Madrid,Madrid,Camino de los Salmedina ,Madrid'",28909,ES,Madrid,Madrid,Camino de los Salmedina,Madrid,,
FreePlace5,-3.6822,40.4769666,"'28046,ES,Madrid,Madrid,Calle de Mauricio legendre 38D,Madrid'",28046,ES,Madrid,Madrid,Calle de Mauricio legendre 38D,Madrid,Chamartín,https://wikidata.org/entity/Q1766348
FreePlace6,-3.6823683,40.4768849,"'28046,ES,Madrid,Madrid,Calle de Mauricio legendre 38D,Madrid'",28046,ES,Madrid,Madrid,Calle de Mauricio legendre 38D,Madrid,Chamartín,https://wikidata.org/entity/Q1766348
FreePlace7,-3.6904133,40.4074666,"'28007,ES,Madrid,Madrid,Plaza del Embarcadero de atocha ,Madrid'",28007,ES,Madrid,Madrid,Plaza del Embarcadero de atocha,Madrid,Arganzuela,https://wikidata.org/entity/Q2000929
FreePlace8,-3.6958516,40.416165,"'28014,ES,Madrid,Madrid,Calle del Marqués de cubas 18,Madrid'",28014,ES,Madrid,Madrid,Calle del Marqués de cubas 18,Madrid,Centro,https://wikidata.org/entity/Q1763376
FreePlace9,-3.6880866,40.4247483,"'28001,ES,Madrid,Madrid,Calle de Serrano ,Madrid'",28001,ES,Madrid,Madrid,Calle de Serrano,Madrid,Salamanca,https://wikidata.org/entity/Q1773521
FreePlace10,-3.6824833,40.4766716,"'28046,ES,Madrid,Madrid,Calle de Mauricio legendre 38D,Madrid'",28046,ES,Madrid,Madrid,Calle de Mauricio legendre 38D,Madrid,Chamartín,https://wikidata.org/entity/Q1766348
FreePlace11,-3.7042166,40.3921583,"'28026,ES,Madrid,Madrid,Calle de Antonio lópez 118,Madrid'",28026,ES,Madrid,Madrid,Calle de Antonio lópez 118,Madrid,Usera,https://wikidata.org/entity/Q953368
FreePlace12,-3.682355,40.4766399,"'28046,ES,Madrid,Madrid,Calle de Mauricio legendre 38D,Madrid'",28046,ES,Madrid,Madrid,Calle de Mauricio legendre 38D,Madrid,Chamartín,https://wikidata.org/entity/Q1766348
FreePlace13,-3.6660449,40.492315,"'28050,ES,Madrid,Madrid,Calle de Ana de austria 4,Madrid'",28050,ES,Madrid,Madrid,Calle de Ana de austria 4,Madrid,Hortaleza,https://wikidata.org/entity/Q1928529
FreePlace14,-3.6681799,40.4884966,"'28050,ES,Madrid,Madrid,Calle de Oña 7,Madrid'",28050,ES,Madrid,Madrid,Calle de Oña 7,Madrid,Hortaleza,https://wikidata.org/entity/Q1928529
FreePlace15,-3.660185,40.4100833,"'28030,ES,Madrid,Madrid,Calle del Camino de los vinateros 12,Madrid'",28030,ES,Madrid,Madrid,Calle del Camino de los vinateros 12,Madrid,Moratalaz,https://wikidata.org/entity/Q2076109
FreePlace16,-3.659145,40.4127333,"'28030,ES,Madrid,Madrid,Calle de Manuel machado 16B,Madrid'",28030,ES,Madrid,Madrid,Calle de Manuel machado 16B,Madrid,Moratalaz,https://wikidata.org/entity/Q2076109
FreePlace17,-3.7105616,40.4498883,"'28039,ES,Madrid,Madrid,Avenida de Pablo iglesias 47,Madrid'",28039,ES,Madrid,Madrid,Avenida de Pablo iglesias 47,Madrid,Moncloa-Aravaca,https://wikidata.org/entity/Q2017682
FreePlace18,-3.670535,40.4820466,"'28033,ES,Madrid,Madrid,Calle de Caleruega 60,Madrid'",28033,ES,Madrid,Madrid,Calle de Caleruega 60,Madrid,Ciudad Lineal,https://wikidata.org/entity/Q1763694
FreePlace19,-3.7803333,40.3808783,"'28044,ES,Madrid,Madrid,Avenida de las Águilas 147,Madrid'",28044,ES,Madrid,Madrid,Avenida de las Águilas 147,Madrid,Latina,https://wikidata.org/entity/Q794954
FreePlace20,-3.682555,40.4768933,"'28046,ES,Madrid,Madrid,Calle de Mauricio legendre 38D,Madrid'",28046,ES,Madrid,Madrid,Calle de Mauricio legendre 38D,Madrid,Chamartín,https://wikidata.org/entity/Q1766348
FreePlace21,-3.61634,40.4979366,"'28055,ES,Madrid,Madrid,Calle de Luis moya blanco 78,Madrid'",28055,ES,Madrid,Madrid,Calle de Luis moya blanco 78,Madrid,Hortaleza,https://wikidata.org/entity/Q1928529
FreePlace22,-3.6823583,40.4770216,"'28046,ES,Madrid,Madrid,Calle de Mauricio legendre 38D,Madrid'",28046,ES,Madrid,Madrid,Calle de Mauricio legendre 38D,Madrid,Chamartín,https://wikidata.org/entity/Q1766348
FreePlace23,-3.6682383,40.459755,"'28016,ES,Madrid,Madrid,Jardín de Miguel ángel blanco ,Madrid'",28016,ES,Madrid,Madrid,Jardín de Miguel ángel blanco,Madrid,Chamartín,https://wikidata.org/entity/Q1766348
FreePlace24,-3.6569983,40.42917,"'28017,ES,Madrid,Madrid,Calle de Ignacio ellacuria 6,Madrid'",28017,ES,Madrid,Madrid,Calle de Ignacio ellacuria 6,Madrid,Ciudad Lineal,https://wikidata.org/entity/Q1763694
FreePlace25,-3.6866899,40.4168483,"'28009,ES,Madrid,Madrid,Paseo de Argentina 2,Madrid'",28009,ES,Madrid,Madrid,Paseo de Argentina 2,Madrid,Retiro,https://wikidata.org/entity/Q2002296
FreePlace26,-3.6714883,40.4668,"'28016,ES,Madrid,Madrid,Calle del Cardenal marcelo spínola 4,Madrid'",28016,ES,Madrid,Madrid,Calle del Cardenal marcelo spínola 4,Madrid,Chamartín,https://wikidata.org/entity/Q1766348
FreePlace27,-3.7178216,40.4342216,"'28015,ES,Madrid,Madrid,Calle de Fernando el católico 88,Madrid'",28015,ES,Madrid,Madrid,Calle de Fernando el católico 88,Madrid,Chamberí,https://wikidata.org/entity/Q1763370
FreePlace28,-3.7059933,40.4149033,"'28012,ES,Madrid,Madrid,Plaza de la Provincia 7,Madrid'",28012,ES,Madrid,Madrid,Plaza de la Provincia 7,Madrid,Centro,https://wikidata.org/entity/Q1763376
FreePlace29,-3.6828233,40.5019933,"'28034,ES,Madrid,Madrid,Calle de Antonio de cabezón 89,Madrid'",28034,ES,Madrid,Madrid,Calle de Antonio de cabezón 89,Madrid,Fuencarral-El Pardo,https://wikidata.org/entity/Q656196
FreePlace30,-3.65793,40.4072399,"'28030,ES,Madrid,Madrid,Plaza del Corregidor alonso de aguilar 6,Madrid'",28030,ES,Madrid,Madrid,Plaza del Corregidor alonso de aguilar 6,Madrid,Moratalaz,https://wikidata.org/entity/Q2076109
FreePlace31,-3.7566566,40.395805,"'28047,ES,Madrid,Madrid,Calle de Camarena 10,Madrid'",28047,ES,Madrid,Madrid,Calle de Camarena 10,Madrid,Latina,https://wikidata.org/entity/Q794954
FreePlace32,-3.7113033,40.4071716,"'28005,ES,Madrid,Madrid,Glorieta de la Puerta de toledo 1,Madrid'",28005,ES,Madrid,Madrid,Glorieta de la Puerta de toledo 1,Madrid,Centro,https://wikidata.org/entity/Q1763376
FreePlace33,-3.694605,40.42374,"'28004,ES,Madrid,Madrid,Plaza de Salesas 8,Madrid'",28004,ES,Madrid,Madrid,Plaza de Salesas 8,Madrid,Centro,https://wikidata.org/entity/Q1763376
FreePlace34,-3.6848816,40.44624,"'28002,ES,Madrid,Madrid,Calle de Serrano 162,Madrid'",28002,ES,Madrid,Madrid,Calle de Serrano 162,Madrid,Chamartín,https://wikidata.org/entity/Q1766348
FreePlace35,-3.695605,40.4129583,"'28014,ES,Madrid,Madrid,Calle de Jesús 10,Madrid'",28014,ES,Madrid,Madrid,Calle de Jesús 10,Madrid,Centro,https://wikidata.org/entity/Q1763376
FreePlace36,-3.6824466,40.4767466,"'28046,ES,Madrid,Madrid,Calle de Mauricio legendre 38D,Madrid'",28046,ES,Madrid,Madrid,Calle de Mauricio legendre 38D,Madrid,Chamartín,https://wikidata.org/entity/Q1766348
FreePlace37,-3.6819966,40.4769483,"'28046,ES,Madrid,Madrid,Calle de Mauricio legendre 38D,Madrid'",28046,ES,Madrid,Madrid,Calle de Mauricio legendre 38D,Madrid,Chamartín,https://wikidata.org/entity/Q1766348
FreePlace38,-3.6297483,40.4290699,"'28037,ES,Madrid,Madrid,Calle de Mieres 13,Madrid'",28037,ES,Madrid,Madrid,Calle de Mieres 13,Madrid,San Blas-Canillejas,https://wikidata.org/entity/Q2001937
FreePlace39,-3.6578216,40.41057,"'28030,ES,Madrid,Madrid,Calle del Camino de los vinateros 5,Madrid'",28030,ES,Madrid,Madrid,Calle del Camino de los vinateros 5,Madrid,Moratalaz,https://wikidata.org/entity/Q2076109
FreePlace40,-3.7177116,40.4137383,"'28005,ES,Madrid,Madrid,Calle de Segovia 47B,Madrid'",28005,ES,Madrid,Madrid,Calle de Segovia 47B,Madrid,Arganzuela,https://wikidata.org/entity/Q2000929
FreePlace41,-3.6997366,40.4207666,"'28004,ES,Madrid,Madrid,Calle de las Infantas 18,Madrid'",28004,ES,Madrid,Madrid,Calle de las Infantas 18,Madrid,Centro,https://wikidata.org/entity/Q1763376
FreePlace42,-3.7037166,40.420195,"'28013,ES,Madrid,Madrid,Calle Gran vía 31,Madrid'",28013,ES,Madrid,Madrid,Calle Gran vía 31,Madrid,Centro,https://wikidata.org/entity/Q1763376
FreePlace43,-3.682055,40.4769466,"'28046,ES,Madrid,Madrid,Calle de Mauricio legendre 38D,Madrid'",28046,ES,Madrid,Madrid,Calle de Mauricio legendre 38D,Madrid,Chamartín,https://wikidata.org/entity/Q1766348
FreePlace44,-3.7017816,40.4241533,"'28004,ES,Madrid,Madrid,Plaza de San ildefonso 7,Madrid'",28004,ES,Madrid,Madrid,Plaza de San ildefonso 7,Madrid,Centro,https://wikidata.org/entity/Q1763376
FreePlace45,-3.7091116,40.4236233,"'28015,ES,Madrid,Madrid,Calle del Álamo 2,Madrid'",28015,ES,Madrid,Madrid,Calle del Álamo 2,Madrid,Centro,https://wikidata.org/entity/Q1763376
FreePlace46,-3.6510649,40.3820916,"'28018,ES,Madrid,Madrid,Avenida de Pablo neruda 114H,Madrid'",28018,ES,Madrid,Madrid,Avenida de Pablo neruda 114H,Madrid,Puente de Vallecas,https://wikidata.org/entity/Q2003054
FreePlace47,-3.7028116,40.4285266,"'28004,ES,Madrid,Madrid,Calle de Manuela malasaña 5,Madrid'",28004,ES,Madrid,Madrid,Calle de Manuela malasaña 5,Madrid,Centro,https://wikidata.org/entity/Q1763376
FreePlace48,-3.67835,40.4290183,"'28001,ES,Madrid,Madrid,Calle del General pardiñas 39,Madrid'",28001,ES,Madrid,Madrid,Calle del General pardiñas 39,Madrid,Salamanca,https://wikidata.org/entity/Q1773521
FreePlace49,-3.6818533,40.4767766,"'28046,ES,Madrid,Madrid,Calle de Mauricio legendre 38D,Madrid'",28046,ES,Madrid,Madrid,Calle de Mauricio legendre 38D,Madrid,Chamartín,https://wikidata.org/entity/Q1766348
FreePlace50,-3.6184816,40.4406366,"'28037,ES,Madrid,Madrid,Calle Cronos 24,Madrid'",28037,ES,Madrid,Madrid,Calle Cronos 24,Madrid,San Blas-Canillejas,https://wikidata.org/entity/Q2001937
FreePlace51,-3.69978,40.4190883,"'28013,ES,Madrid,Madrid,Calle de la Virgen de los peligros 14,Madrid'",28013,ES,Madrid,Madrid,Calle de la Virgen de los peligros 14,Madrid,Centro,https://wikidata.org/entity/Q1763376
FreePlace52,-3.68239,40.4769466,"'28046,ES,Madrid,Madrid,Calle de Mauricio legendre 38D,Madrid'",28046,ES,Madrid,Madrid,Calle de Mauricio legendre 38D,Madrid,Chamartín,https://wikidata.org/entity/Q1766348
FreePlace53,-3.67529,40.4323733,"'28006,ES,Madrid,Madrid,Calle de Juan bravo 53,Madrid'",28006,ES,Madrid,Madrid,Calle de Juan bravo 53,Madrid,Salamanca,https://wikidata.org/entity/Q1773521
FreePlace54,-3.697835,40.4025266,"'28045,ES,Madrid,Madrid,Paseo de Santa maría de la cabeza 50,Madrid'",28045,ES,Madrid,Madrid,Paseo de Santa maría de la cabeza 50,Madrid,Arganzuela,https://wikidata.org/entity/Q2000929
FreePlace55,-3.6823983,40.47675,"'28046,ES,Madrid,Madrid,Calle de Mauricio legendre 38D,Madrid'",28046,ES,Madrid,Madrid,Calle de Mauricio legendre 38D,Madrid,Chamartín,https://wikidata.org/entity/Q1766348
FreePlace56,-3.68217,40.4768483,"'28046,ES,Madrid,Madrid,Calle de Mauricio legendre 38D,Madrid'",28046,ES,Madrid,Madrid,Calle de Mauricio legendre 38D,Madrid,Chamartín,https://wikidata.org/entity/Q1766348
FreePlace57,-3.7138383,40.4016133,"'28005,ES,Madrid,Madrid,Calle de Toledo 181,Madrid'",28005,ES,Madrid,Madrid,Calle de Toledo 181,Madrid,Arganzuela,https://wikidata.org/entity/Q2000929
FreePlace58,-3.69535,40.38037,"'28041,ES,Madrid,Madrid,Calle de Antonio lópez 237,Madrid'",28041,ES,Madrid,Madrid,Calle de Antonio lópez 237,Madrid,Usera,https://wikidata.org/entity/Q953368
FreePlace59,-3.6885983,40.399405,"'28045,ES,Madrid,Madrid,Calle de Ramírez de prado 4,Madrid'",28045,ES,Madrid,Madrid,Calle de Ramírez de prado 4,Madrid,Arganzuela,https://wikidata.org/entity/Q2000929
FreePlace60,-3.616565,40.4983733,"'28055,ES,Madrid,Madrid,Calle José maría aguirre gonzalo ,Madrid'",28055,ES,Madrid,Madrid,Calle José maría aguirre gonzalo,Madrid,Hortaleza,https://wikidata.org/entity/Q1928529
FreePlace61,-3.6823216,40.4768516,"'28046,ES,Madrid,Madrid,Calle de Mauricio legendre 38D,Madrid'",28046,ES,Madrid,Madrid,Calle de Mauricio legendre 38D,Madrid,Chamartín,https://wikidata.org/entity/Q1766348
FreePlace62,-3.6821733,40.4769666,"'28046,ES,Madrid,Madrid,Calle de Mauricio legendre 38D,Madrid'",28046,ES,Madrid,Madrid,Calle de Mauricio legendre 38D,Madrid,Chamartín,https://wikidata.org/entity/Q1766348
FreePlace63,-3.7006283,40.4115849,"'28012,ES,Madrid,Madrid,Calle del Olmo 21B,Madrid'",28012,ES,Madrid,Madrid,Calle del Olmo 21B,Madrid,Centro,https://wikidata.org/entity/Q1763376
FreePlace64,-3.6467816,40.408405,"'28030,ES,Madrid,Madrid,Calle del Camino de los vinateros 108,Madrid'",28030,ES,Madrid,Madrid,Calle del Camino de los vinateros 108,Madrid,Moratalaz,https://wikidata.org/entity/Q2076109
FreePlace65,-3.71781,40.4385699,"'28015,ES,Madrid,Madrid,Calle de Isaac peral 42,Madrid'",28015,ES,Madrid,Madrid,Calle de Isaac peral 42,Madrid,Chamberí,https://wikidata.org/entity/Q1763370
FreePlace66,-3.66928,40.5081766,"'28050,ES,Madrid,Madrid,Calle Toques 11,Madrid'",28050,ES,Madrid,Madrid,Calle Toques 11,Madrid,Fuencarral-El Pardo,https://wikidata.org/entity/Q656196
FreePlace67,-3.70086,40.4115533,"'28012,ES,Madrid,Madrid,Calle del Olmo 15,Madrid'",28012,ES,Madrid,Madrid,Calle del Olmo 15,Madrid,Centro,https://wikidata.org/entity/Q1763376
FreePlace68,-3.7008833,40.4115683,"'28012,ES,Madrid,Madrid,Calle del Olmo 15,Madrid'",28012,ES,Madrid,Madrid,Calle del Olmo 15,Madrid,Centro,https://wikidata.org/entity/Q1763376
FreePlace69,-3.686735,40.430425,"'28006,ES,Madrid,Madrid,Calle de José ortega y gasset 4,Madrid'",28006,ES,Madrid,Madrid,Calle de José ortega y gasset 4,Madrid,Salamanca,https://wikidata.org/entity/Q1773521
FreePlace70,-3.6947633,40.4030899,"'28045,ES,Madrid,Madrid,Calle de Palos de la frontera 27,Madrid'",28045,ES,Madrid,Madrid,Calle de Palos de la frontera 27,Madrid,Arganzuela,https://wikidata.org/entity/Q2000929
FreePlace71,-3.6372333,40.40846,"'28030,ES,Madrid,Madrid,Avenida del Doctor garcía tapia 196,Madrid'",28030,ES,Madrid,Madrid,Avenida del Doctor garcía tapia 196,Madrid,Moratalaz,https://wikidata.org/entity/Q2076109
FreePlace72,-3.67862,40.5096083,"'28050,ES,Madrid,Madrid,Calle de Castiello de jaca 16,Madrid'",28050,ES,Madrid,Madrid,Calle de Castiello de jaca 16,Madrid,Fuencarral-El Pardo,https://wikidata.org/entity/Q656196
FreePlace73,-3.6786533,40.5094083,"'28050,ES,Madrid,Madrid,Calle de Castiello de jaca 22,Madrid'",28050,ES,Madrid,Madrid,Calle de Castiello de jaca 22,Madrid,Fuencarral-El Pardo,https://wikidata.org/entity/Q656196
FreePlace74,-3.7017283,40.4419383,"'28003,ES,Madrid,Madrid,Calle de Santa engracia 129,Madrid'",28003,ES,Madrid,Madrid,Calle de Santa engracia 129,Madrid,Chamberí,https://wikidata.org/entity/Q1763370
FreePlace75,-3.7302916,40.4280816,"'28008,ES,Madrid,Madrid,Pasarela de Almuñecar ,Madrid'",28008,ES,Madrid,Madrid,Pasarela de Almuñecar,Madrid,Moncloa-Aravaca,https://wikidata.org/entity/Q2017682
FreePlace76,-3.706085,40.4148066,"'28012,ES,Madrid,Madrid,Plaza de la Provincia 3,Madrid'",28012,ES,Madrid,Madrid,Plaza de la Provincia 3,Madrid,Centro,https://wikidata.org/entity/Q1763376
FreePlace77,-3.6574316,40.40685,"'28030,ES,Madrid,Madrid,Avenida de Moratalaz 45B,Madrid'",28030,ES,Madrid,Madrid,Avenida de Moratalaz 45B,Madrid,Moratalaz,https://wikidata.org/entity/Q2076109
FreePlace78,-3.666755,40.4077816,"'28007,ES,Madrid,Madrid,Calle de Piscis 2B,Madrid'",28007,ES,Madrid,Madrid,Calle de Piscis 2B,Madrid,Retiro,https://wikidata.org/entity/Q2002296
FreePlace79,-3.7302383,40.4279933,"'28008,ES,Madrid,Madrid,Pasarela de Almuñecar ,Madrid'",28008,ES,Madrid,Madrid,Pasarela de Almuñecar,Madrid,Moncloa-Aravaca,https://wikidata.org/entity/Q2017682
FreePlace80,-3.6685933,40.399875,"'28007,ES,Madrid,Madrid,Calle de Triquet 8,Madrid'",28007,ES,Madrid,Madrid,Calle de Triquet 8,Madrid,Retiro,https://wikidata.org/entity/Q2002296
FreePlace81,-3.7066766,40.4812216,"'28034,ES,Madrid,Madrid,Avenida de la Ilustración ,Madrid'",28034,ES,Madrid,Madrid,Avenida de la Ilustración,Madrid,Fuencarral-El Pardo,https://wikidata.org/entity/Q656196
FreePlace82,-3.6460616,40.436105,"'28027,ES,Madrid,Madrid,Calle de Federico gutiérrez 23,Madrid'",28027,ES,Madrid,Madrid,Calle de Federico gutiérrez 23,Madrid,Ciudad Lineal,https://wikidata.org/entity/Q1763694
FreePlace83,-3.7163516,40.4804866,"'28034,ES,Madrid,Madrid,Calle de la Isla de arosa 29,Madrid'",28034,ES,Madrid,Madrid,Calle de la Isla de arosa 29,Madrid,Fuencarral-El Pardo,https://wikidata.org/entity/Q656196
FreePlace84,-3.6579533,40.426455,"'28017,ES,Madrid,Madrid,Calle Ricardo ortiz 41,Madrid'",28017,ES,Madrid,Madrid,Calle Ricardo ortiz 41,Madrid,Ciudad Lineal,https://wikidata.org/entity/Q1763694
FreePlace85,-3.70359,40.4142566,"'28012,ES,Madrid,Madrid,Calle de Atocha 16,Madrid'",28012,ES,Madrid,Madrid,Calle de Atocha 16,Madrid,Centro,https://wikidata.org/entity/Q1763376
FreePlace86,-3.682495,40.4766333,"'28046,ES,Madrid,Madrid,Calle de Mauricio legendre 38D,Madrid'",28046,ES,Madrid,Madrid,Calle de Mauricio legendre 38D,Madrid,Chamartín,https://wikidata.org/entity/Q1766348
FreePlace87,-3.68234,40.4767449,"'28046,ES,Madrid,Madrid,Calle de Mauricio legendre 38D,Madrid'",28046,ES,Madrid,Madrid,Calle de Mauricio legendre 38D,Madrid,Chamartín,https://wikidata.org/entity/Q1766348
FreePlace88,-3.682275,40.4767,"'28046,ES,Madrid,Madrid,Calle de Mauricio legendre 38D,Madrid'",28046,ES,Madrid,Madrid,Calle de Mauricio legendre 38D,Madrid,Chamartín,https://wikidata.org/entity/Q1766348
FreePlace89,-3.675475,40.4323433,"'28006,ES,Madrid,Madrid,Calle de Juan bravo 53,Madrid'",28006,ES,Madrid,Madrid,Calle de Juan bravo 53,Madrid,Salamanca,https://wikidata.org/entity/Q1773521
FreePlace90,-3.682345,40.476705,"'28046,ES,Madrid,Madrid,Calle de Mauricio legendre 38D,Madrid'",28046,ES,Madrid,Madrid,Calle de Mauricio legendre 38D,Madrid,Chamartín,https://wikidata.org/entity/Q1766348
FreePlace91,-3.68881,40.409935,"'28014,ES,Madrid,Madrid,Calle de Alfonso xii 54,Madrid'",28014,ES,Madrid,Madrid,Calle de Alfonso xii 54,Madrid,Retiro,https://wikidata.org/entity/Q2002296
FreePlace92,-3.6823466,40.476765,"'28046,ES,Madrid,Madrid,Calle de Mauricio legendre 38D,Madrid'",28046,ES,Madrid,Madrid,Calle de Mauricio legendre 38D,Madrid,Chamartín,https://wikidata.org/entity/Q1766348
FreePlace93,-3.7228383,40.4109766,"'28011,ES,Madrid,Madrid,Paseo Salón de los pinos ,Madrid'",28011,ES,Madrid,Madrid,Paseo Salón de los pinos,Madrid,Latina,https://wikidata.org/entity/Q794954
FreePlace94,-3.6823616,40.4766816,"'28046,ES,Madrid,Madrid,Calle de Mauricio legendre 38D,Madrid'",28046,ES,Madrid,Madrid,Calle de Mauricio legendre 38D,Madrid,Chamartín,https://wikidata.org/entity/Q1766348
FreePlace95,-3.686425,40.425945,"'28001,ES,Madrid,Madrid,Calle de Claudio coello 43,Madrid'",28001,ES,Madrid,Madrid,Calle de Claudio coello 43,Madrid,Salamanca,https://wikidata.org/entity/Q1773521
FreePlace96,-3.6823716,40.47677,"'28046,ES,Madrid,Madrid,Calle de Mauricio legendre 38D,Madrid'",28046,ES,Madrid,Madrid,Calle de Mauricio legendre 38D,Madrid,Chamartín,https://wikidata.org/entity/Q1766348
FreePlace97,-3.6823216,40.476825,"'28046,ES,Madrid,Madrid,Calle de Mauricio legendre 38D,Madrid'",28046,ES,Madrid,Madrid,Calle de Mauricio legendre 38D,Madrid,Chamartín,https://wikidata.org/entity/Q1766348
FreePlace98,-3.6821683,40.477375,"'28046,ES,Madrid,Madrid,Calle de Mauricio legendre 59,Madrid'",28046,ES,Madrid,Madrid,Calle de Mauricio legendre 59,Madrid,Chamartín,https://wikidata.org/entity/Q1766348
FreePlace99,-3.6824816,40.4769716,"'28046,ES,Madrid,Madrid,Calle de Mauricio legendre 38D,Madrid'",28046,ES,Madrid,Madrid,Calle de Mauricio legendre 38D,Madrid,Chamartín,https://wikidata.org/entity/Q1766348
FreePlace100,-3.70313,40.4535216,"'28020,ES,Madrid,Madrid,Calle de Bravo murillo 181,Madrid'",28020,ES,Madrid,Madrid,Calle de Bravo murillo 181,Madrid,Tetuán,https://wikidata.org/entity/Q1773540
FreePlace101,-3.65317,40.4428616,"'28027,ES,Madrid,Madrid,Avenida de Badajoz 64,Madrid'",28027,ES,Madrid,Madrid,Avenida de Badajoz 64,Madrid,Ciudad Lineal,https://wikidata.org/entity/Q1763694
FreePlace102,-3.6921416,40.4254,"'28004,ES,Madrid,Madrid,Calle Marqués de la ensenada 1B,Madrid'",28004,ES,Madrid,Madrid,Calle Marqués de la ensenada 1B,Madrid,Centro,https://wikidata.org/entity/Q1763376
FreePlace103,-3.68902,40.480345,"'28029,ES,Madrid,Madrid,Anillo Distribuidor cuatro torres ,Madrid'",28029,ES,Madrid,Madrid,Anillo Distribuidor cuatro torres,Madrid,Fuencarral-El Pardo,https://wikidata.org/entity/Q656196
FreePlace104,-3.67542,40.4443116,"'28002,ES,Madrid,Madrid,Calle de Suero de quiñones 3,Madrid'",28002,ES,Madrid,Madrid,Calle de Suero de quiñones 3,Madrid,Chamartín,https://wikidata.org/entity/Q1766348
FreePlace105,-3.7110633,40.4578866,"'28039,ES,Madrid,Madrid,Calle de Ofelia nieto 3,Madrid'",28039,ES,Madrid,Madrid,Calle de Ofelia nieto 3,Madrid,Tetuán,https://wikidata.org/entity/Q1773540
FreePlace106,-3.6865083,40.42668,"'28001,ES,Madrid,Madrid,Calle de Claudio coello 44,Madrid'",28001,ES,Madrid,Madrid,Calle de Claudio coello 44,Madrid,Salamanca,https://wikidata.org/entity/Q1773521
FreePlace107,-3.7288483,40.408805,"'28011,ES,Madrid,Madrid,Calle de Calatayud 8,Madrid'",28011,ES,Madrid,Madrid,Calle de Calatayud 8,Madrid,Latina,https://wikidata.org/entity/Q794954
FreePlace108,-3.695565,40.3824033,"'28026,ES,Madrid,Madrid,Calle de Antonio lópez 209,Madrid'",28026,ES,Madrid,Madrid,Calle de Antonio lópez 209,Madrid,Usera,https://wikidata.org/entity/Q953368
FreePlace109,-3.651535,40.442775,"'28027,ES,Madrid,Madrid,Calle de Aristóteles 7,Madrid'",28027,ES,Madrid,Madrid,Calle de Aristóteles 7,Madrid,Ciudad Lineal,https://wikidata.org/entity/Q1763694
FreePlace110,-3.6393333,40.4462783,"'28027,ES,Madrid,Madrid,Calle General aranaz 62M,Madrid'",28027,ES,Madrid,Madrid,Calle General aranaz 62M,Madrid,San Blas-Canillejas,https://wikidata.org/entity/Q2001937
FreePlace111,-3.6574566,40.4106716,"'28030,ES,Madrid,Madrid,Calle del Camino de los vinateros 9,Madrid'",28030,ES,Madrid,Madrid,Calle del Camino de los vinateros 9,Madrid,Moratalaz,https://wikidata.org/entity/Q2076109
FreePlace112,-3.7009566,40.4573199,"'28020,ES,Madrid,Madrid,Calle de San germán 74,Madrid'",28020,ES,Madrid,Madrid,Calle de San germán 74,Madrid,Tetuán,https://wikidata.org/entity/Q1773540
FreePlace113,-3.7374883,40.40267,"'28047,ES,Madrid,Madrid,Calle Cjal. francisco josé jiménez martín 28,Madrid'",28047,ES,Madrid,Madrid,Calle Cjal. francisco josé jiménez martín 28,Madrid,Latina,https://wikidata.org/entity/Q794954
FreePlace114,-3.5917466,40.4043749,"'28032,ES,Madrid,Madrid,Carretera de Vicálvaro a la estac. o'donnell 7,Madrid'",28032,ES,Madrid,Madrid,Carretera de Vicálvaro a la estac. odonnell 7,Madrid,Vicálvaro,https://wikidata.org/entity/Q589403
FreePlace115,-3.6977633,40.3994549,"'28045,ES,Madrid,Madrid,Calle del General palanca 20,Madrid'",28045,ES,Madrid,Madrid,Calle del General palanca 20,Madrid,Arganzuela,https://wikidata.org/entity/Q2000929
FreePlace116,-3.7117816,40.4035383,"'28005,ES,Madrid,Madrid,Travesía de San isidoro de sevilla 13,Madrid'",28005,ES,Madrid,Madrid,Travesía de San isidoro de sevilla 13,Madrid,Arganzuela,https://wikidata.org/entity/Q2000929
FreePlace117,-3.735005,40.4080916,"'28011,ES,Madrid,Madrid,Paseo Jesuitas 67,Madrid'",28011,ES,Madrid,Madrid,Paseo Jesuitas 67,Madrid,Latina,https://wikidata.org/entity/Q794954
FreePlace118,-3.7102116,40.4141549,"'28005,ES,Madrid,Madrid, Cm-43 1,Madrid'",28005,ES,Madrid,Madrid,Cm-43 1,Madrid,Centro,https://wikidata.org/entity/Q1763376
FreePlace119,-3.710095,40.43646,"'28015,ES,Madrid,Madrid,Calle de Galileo 74,Madrid'",28015,ES,Madrid,Madrid,Calle de Galileo 74,Madrid,Chamberí,https://wikidata.org/entity/Q1763370
FreePlace120,-3.6939683,40.3915566,"'28045,ES,Madrid,Madrid,Calle de Bolívar 10,Madrid'",28045,ES,Madrid,Madrid,Calle de Bolívar 10,Madrid,Arganzuela,https://wikidata.org/entity/Q2000929
FreePlace121,-3.6858449,40.4129166,"'28009,ES,Madrid,Madrid,Plaza Independencia ,Madrid'",28009,ES,Madrid,Madrid,Plaza Independencia,Madrid,Retiro,https://wikidata.org/entity/Q2002296
FreePlace122,-3.703695,40.4143866,"'28012,ES,Madrid,Madrid,Calle de Atocha 16,Madrid'",28012,ES,Madrid,Madrid,Calle de Atocha 16,Madrid,Centro,https://wikidata.org/entity/Q1763376
FreePlace123,-3.6443083,40.4403133,"'28027,ES,Madrid,Madrid,Calle del Sol naciente 30,Madrid'",28027,ES,Madrid,Madrid,Calle del Sol naciente 30,Madrid,Ciudad Lineal,https://wikidata.org/entity/Q1763694
FreePlace124,-3.6363649,40.446505,"'28027,ES,Madrid,Madrid,Calle de Belice 36,Madrid'",28027,ES,Madrid,Madrid,Calle de Belice 36,Madrid,San Blas-Canillejas,https://wikidata.org/entity/Q2001937
FreePlace125,-3.6475933,40.48778,"'28050,ES,Madrid,Madrid,Calle Miguel ángel asturias 4,Madrid'",28050,ES,Madrid,Madrid,Calle Miguel ángel asturias 4,Madrid,Hortaleza,https://wikidata.org/entity/Q1928529
FreePlace126,-3.6476016,40.48779,"'28050,ES,Madrid,Madrid,Calle Miguel ángel asturias 4,Madrid'",28050,ES,Madrid,Madrid,Calle Miguel ángel asturias 4,Madrid,Hortaleza,https://wikidata.org/entity/Q1928529
FreePlace127,-3.7347366,40.4189483,"'28011,ES,Madrid,Madrid,Paseo de María teresa 14,Madrid'",28011,ES,Madrid,Madrid,Paseo de María teresa 14,Madrid,Moncloa-Aravaca,https://wikidata.org/entity/Q2017682
FreePlace128,-3.6639333,40.4295383,"'28028,ES,Madrid,Madrid,Calle de Bocángel 6,Madrid'",28028,ES,Madrid,Madrid,Calle de Bocángel 6,Madrid,Salamanca,https://wikidata.org/entity/Q1773521
FreePlace129,-3.6751766,40.4440816,"'28002,ES,Madrid,Madrid,Plaza de la Prosperidad 2,Madrid'",28002,ES,Madrid,Madrid,Plaza de la Prosperidad 2,Madrid,Chamartín,https://wikidata.org/entity/Q1766348
FreePlace130,-3.6778166,40.4152366,"'28009,ES,Madrid,Madrid,Avenida de Menéndez pelayo 63,Madrid'",28009,ES,Madrid,Madrid,Avenida de Menéndez pelayo 63,Madrid,Retiro,https://wikidata.org/entity/Q2002296
FreePlace131,-3.7059733,40.428495,"'28015,ES,Madrid,Madrid,Calle de San bernardo 87,Madrid'",28015,ES,Madrid,Madrid,Calle de San bernardo 87,Madrid,Centro,https://wikidata.org/entity/Q1763376
FreePlace132,-3.71364,40.4577916,"'28040,ES,Madrid,Madrid,Calle de María auxiliadora 3,Madrid'",28040,ES,Madrid,Madrid,Calle de María auxiliadora 3,Madrid,Moncloa-Aravaca,https://wikidata.org/entity/Q2017682
FreePlace133,-3.69361,40.4008333,"'28045,ES,Madrid,Madrid,Calle de Bustamante 1,Madrid'",28045,ES,Madrid,Madrid,Calle de Bustamante 1,Madrid,Arganzuela,https://wikidata.org/entity/Q2000929
FreePlace134,-3.6820683,40.4964166,"'28034,ES,Madrid,Madrid,Calle de Antonio de cabezón 53,Madrid'",28034,ES,Madrid,Madrid,Calle de Antonio de cabezón 53,Madrid,Fuencarral-El Pardo,https://wikidata.org/entity/Q656196
FreePlace135,-3.6575766,40.414215,"'28030,ES,Madrid,Madrid,Calle del Alcalde garrido juaristi 2,Madrid'",28030,ES,Madrid,Madrid,Calle del Alcalde garrido juaristi 2,Madrid,Moratalaz,https://wikidata.org/entity/Q2076109
FreePlace136,-3.6527616,40.4911416,"'28050,ES,Madrid,Madrid,Calle del Príncipe carlos 36,Madrid'",28050,ES,Madrid,Madrid,Calle del Príncipe carlos 36,Madrid,Hortaleza,https://wikidata.org/entity/Q1928529
FreePlace137,-3.7310966,40.4868633,"'28035,ES,Madrid,Madrid,Calle de Irene caba alba 2,Madrid'",28035,ES,Madrid,Madrid,Calle de Irene caba alba 2,Madrid,Mirasierra,https://wikidata.org/entity/Q31134
FreePlace138,-3.6777233,40.4153266,"'28009,ES,Madrid,Madrid,Avenida de Menéndez pelayo 63,Madrid'",28009,ES,Madrid,Madrid,Avenida de Menéndez pelayo 63,Madrid,Retiro,https://wikidata.org/entity/Q2002296
FreePlace139,-3.7082766,40.4202883,"'28013,ES,Madrid,Madrid,Plaza de Santo domingo 16,Madrid'",28013,ES,Madrid,Madrid,Plaza de Santo domingo 16,Madrid,Centro,https://wikidata.org/entity/Q1763376
FreePlace140,-3.6510849,40.4099083,"'28030,ES,Madrid,Madrid,Calle del Camino de los vinateros 78,Madrid'",28030,ES,Madrid,Madrid,Calle del Camino de los vinateros 78,Madrid,Moratalaz,https://wikidata.org/entity/Q2076109
FreePlace141,-3.6997149,40.42071,"'28004,ES,Madrid,Madrid,Calle de las Infantas 20,Madrid'",28004,ES,Madrid,Madrid,Calle de las Infantas 20,Madrid,Centro,https://wikidata.org/entity/Q1763376
FreePlace142,-3.70796,40.394915,"'28019,ES,Madrid,Madrid,Calle San delfín 6,Madrid'",28019,ES,Madrid,Madrid,Calle San delfín 6,Madrid,Carabanchel,https://wikidata.org/entity/Q1001991
FreePlace143,-3.6820783,40.4769616,"'28046,ES,Madrid,Madrid,Calle de Mauricio legendre 38D,Madrid'",28046,ES,Madrid,Madrid,Calle de Mauricio legendre 38D,Madrid,Chamartín,https://wikidata.org/entity/Q1766348
FreePlace144,-3.7102283,40.4364966,"'28015,ES,Madrid,Madrid,Calle de Galileo 74B,Madrid'",28015,ES,Madrid,Madrid,Calle de Galileo 74B,Madrid,Chamberí,https://wikidata.org/entity/Q1763370
FreePlace145,-3.68211,40.476755,"'28046,ES,Madrid,Madrid,Calle de Mauricio legendre 38D,Madrid'",28046,ES,Madrid,Madrid,Calle de Mauricio legendre 38D,Madrid,Chamartín,https://wikidata.org/entity/Q1766348
FreePlace146,-3.682,40.476845,"'28046,ES,Madrid,Madrid,Calle de Mauricio legendre 38D,Madrid'",28046,ES,Madrid,Madrid,Calle de Mauricio legendre 38D,Madrid,Chamartín,https://wikidata.org/entity/Q1766348
FreePlace147,-3.6550633,40.4898366,"'28050,ES,Madrid,Madrid,Calle de la Princesa de éboli 29,Madrid'",28050,ES,Madrid,Madrid,Calle de la Princesa de éboli 29,Madrid,Hortaleza,https://wikidata.org/entity/Q1928529
FreePlace148,-3.7304066,40.4286033,"'28008,ES,Madrid,Madrid,Avenida de Valladolid 47B,Madrid'",28008,ES,Madrid,Madrid,Avenida de Valladolid 47B,Madrid,Moncloa-Aravaca,https://wikidata.org/entity/Q2017682
FreePlace149,-3.6746366,40.4988933,"'28050,ES,Madrid,Madrid,Calle Obanos 7,Madrid'",28050,ES,Madrid,Madrid,Calle Obanos 7,Madrid,Fuencarral-El Pardo,https://wikidata.org/entity/Q656196
FreePlace150,-3.682065,40.476935,"'28046,ES,Madrid,Madrid,Calle de Mauricio legendre 38D,Madrid'",28046,ES,Madrid,Madrid,Calle de Mauricio legendre 38D,Madrid,Chamartín,https://wikidata.org/entity/Q1766348
FreePlace151,-3.69355,40.4077483,"'28012,ES,Madrid,Madrid,Plaza del Emperador carlos v 7,Madrid'",28012,ES,Madrid,Madrid,Plaza del Emperador carlos v 7,Madrid,Centro,https://wikidata.org/entity/Q1763376
FreePlace152,-3.6824316,40.4786033,"'28046,ES,Madrid,Madrid,Calle de Mauricio legendre 59,Madrid'",28046,ES,Madrid,Madrid,Calle de Mauricio legendre 59,Madrid,Chamartín,https://wikidata.org/entity/Q1766348
FreePlace153,-3.7052283,40.4215666,"'28004,ES,Madrid,Madrid,Calle de la Luna 4,Madrid'",28004,ES,Madrid,Madrid,Calle de la Luna 4,Madrid,Centro,https://wikidata.org/entity/Q1763376
FreePlace154,-3.729335,40.42636,"'28008,ES,Madrid,Madrid,Calle de la Ribera del manzanares 95,Madrid'",28008,ES,Madrid,Madrid,Calle de la Ribera del manzanares 95,Madrid,Moncloa-Aravaca,https://wikidata.org/entity/Q2017682
FreePlace155,-3.7177833,40.4397716,"'28040,ES,Madrid,Madrid,Calle de Isaac peral 42,Madrid'",28040,ES,Madrid,Madrid,Calle de Isaac peral 42,Madrid,Moncloa-Aravaca,https://wikidata.org/entity/Q2017682
FreePlace156,-3.7128933,40.4172216,"'28013,ES,Madrid,Madrid,Calle de Requena 7,Madrid'",28013,ES,Madrid,Madrid,Calle de Requena 7,Madrid,Centro,https://wikidata.org/entity/Q1763376
FreePlace157,-3.655015,40.48985,"'28050,ES,Madrid,Madrid,Calle de la Princesa de éboli 29,Madrid'",28050,ES,Madrid,Madrid,Calle de la Princesa de éboli 29,Madrid,Hortaleza,https://wikidata.org/entity/Q1928529
FreePlace158,-3.734465,40.4189316,"'28011,ES,Madrid,Madrid,Paseo de María teresa 14,Madrid'",28011,ES,Madrid,Madrid,Paseo de María teresa 14,Madrid,Moncloa-Aravaca,https://wikidata.org/entity/Q2017682
FreePlace159,-3.7072633,40.4223966,"'28004,ES,Madrid,Madrid,Calle de la Estrella 19,Madrid'",28004,ES,Madrid,Madrid,Calle de la Estrella 19,Madrid,Centro,https://wikidata.org/entity/Q1763376
FreePlace160,-3.6528933,40.4611899,"'28043,ES,Madrid,Madrid,Calle de Mayorga 6,Madrid'",28043,ES,Madrid,Madrid,Calle de Mayorga 6,Madrid,Hortaleza,https://wikidata.org/entity/Q1928529
FreePlace161,-3.7060116,40.4284366,"'28015,ES,Madrid,Madrid,Calle de San bernardo 82,Madrid'",28015,ES,Madrid,Madrid,Calle de San bernardo 82,Madrid,Centro,https://wikidata.org/entity/Q1763376
FreePlace162,-3.68553,40.5047333,"'28034,ES,Madrid,Madrid,Calle de Nuestra señora de valverde 191,Madrid'",28034,ES,Madrid,Madrid,Calle de Nuestra señora de valverde 191,Madrid,Fuencarral-El Pardo,https://wikidata.org/entity/Q656196
FreePlace163,-3.6680483,40.4821533,"'28033,ES,Madrid,Madrid,Calle de Caleruega 106,Madrid'",28033,ES,Madrid,Madrid,Calle de Caleruega 106,Madrid,Ciudad Lineal,https://wikidata.org/entity/Q1763694
FreePlace164,-3.7347266,40.4163483,"'28011,ES,Madrid,Madrid,Ronda del Lago 2,Madrid'",28011,ES,Madrid,Madrid,Ronda del Lago 2,Madrid,Moncloa-Aravaca,https://wikidata.org/entity/Q2017682
FreePlace165,-3.7345783,40.4190216,"'28011,ES,Madrid,Madrid,Paseo de María teresa 14,Madrid'",28011,ES,Madrid,Madrid,Paseo de María teresa 14,Madrid,Moncloa-Aravaca,https://wikidata.org/entity/Q2017682
FreePlace166,-3.7090416,40.411385,"'28005,ES,Madrid,Madrid,Plaza de la Cebada 3,Madrid'",28005,ES,Madrid,Madrid,Plaza de la Cebada 3,Madrid,Centro,https://wikidata.org/entity/Q1763376
FreePlace167,-3.7347666,40.4164433,"'28011,ES,Madrid,Madrid,Ronda del Lago 2,Madrid'",28011,ES,Madrid,Madrid,Ronda del Lago 2,Madrid,Moncloa-Aravaca,https://wikidata.org/entity/Q2017682
FreePlace168,-3.68251,40.4775116,"'28046,ES,Madrid,Madrid,Calle de Mauricio legendre 59,Madrid'",28046,ES,Madrid,Madrid,Calle de Mauricio legendre 59,Madrid,Chamartín,https://wikidata.org/entity/Q1766348
FreePlace169,-3.6824283,40.4767366,"'28046,ES,Madrid,Madrid,Calle de Mauricio legendre 38D,Madrid'",28046,ES,Madrid,Madrid,Calle de Mauricio legendre 38D,Madrid,Chamartín,https://wikidata.org/entity/Q1766348
FreePlace170,-3.7262033,40.4900716,"'28035,ES,Madrid,Madrid,Calle de Federica montseny 2,Madrid'",28035,ES,Madrid,Madrid,Calle de Federica montseny 2,Madrid,Mirasierra,https://wikidata.org/entity/Q31134
FreePlace171,-3.7038633,40.4098783,"'28012,ES,Madrid,Madrid,Plaza Nelson mandela ,Madrid'",28012,ES,Madrid,Madrid,Plaza Nelson mandela,Madrid,Centro,https://wikidata.org/entity/Q1763376
FreePlace172,-3.6852583,40.479465,"'28046,ES,Madrid,Madrid,Paseo de la Castellana 298,Madrid'",28046,ES,Madrid,Madrid,Paseo de la Castellana 298,Madrid,Chamartín,https://wikidata.org/entity/Q1766348
FreePlace173,-3.7020566,40.4282183,"'28004,ES,Madrid,Madrid,Calle de Fuencarral 104,Madrid'",28004,ES,Madrid,Madrid,Calle de Fuencarral 104,Madrid,Centro,https://wikidata.org/entity/Q1763376
FreePlace174,-3.63913,40.4461016,"'28027,ES,Madrid,Madrid,Calle General aranaz 62K,Madrid'",28027,ES,Madrid,Madrid,Calle General aranaz 62K,Madrid,San Blas-Canillejas,https://wikidata.org/entity/Q2001937
FreePlace175,-3.636345,40.4465833,"'28027,ES,Madrid,Madrid,Calle de Belice 38,Madrid'",28027,ES,Madrid,Madrid,Calle de Belice 38,Madrid,San Blas-Canillejas,https://wikidata.org/entity/Q2001937
FreePlace176,-3.6363433,40.4465983,"'28027,ES,Madrid,Madrid,Calle de Belice 38,Madrid'",28027,ES,Madrid,Madrid,Calle de Belice 38,Madrid,San Blas-Canillejas,https://wikidata.org/entity/Q2001937
FreePlace177,-3.6707016,40.4821683,"'28033,ES,Madrid,Madrid,Calle de Caleruega 65,Madrid'",28033,ES,Madrid,Madrid,Calle de Caleruega 65,Madrid,Ciudad Lineal,https://wikidata.org/entity/Q1763694
FreePlace178,-3.6881766,40.4005766,"'28045,ES,Madrid,Madrid,Calle de Bustamante 16,Madrid'",28045,ES,Madrid,Madrid,Calle de Bustamante 16,Madrid,Arganzuela,https://wikidata.org/entity/Q2000929
FreePlace179,-3.6823833,40.47655,"'28046,ES,Madrid,Madrid,Calle de Mauricio legendre 38D,Madrid'",28046,ES,Madrid,Madrid,Calle de Mauricio legendre 38D,Madrid,Chamartín,https://wikidata.org/entity/Q1766348
FreePlace180,-3.6822266,40.4769133,"'28046,ES,Madrid,Madrid,Calle de Mauricio legendre 38D,Madrid'",28046,ES,Madrid,Madrid,Calle de Mauricio legendre 38D,Madrid,Chamartín,https://wikidata.org/entity/Q1766348
FreePlace181,-3.6699383,40.4061583,"'28007,ES,Madrid,Madrid,Calle de Carlos y guillermo fernández shaw 1H,Madrid'",28007,ES,Madrid,Madrid,Calle de Carlos y guillermo fernández shaw 1H,Madrid,Retiro,https://wikidata.org/entity/Q2002296
FreePlace182,-3.6678433,40.492255,"'28050,ES,Madrid,Madrid,Calle de María de las nieves lozano ,Madrid'",28050,ES,Madrid,Madrid,Calle de María de las nieves lozano,Madrid,Hortaleza,https://wikidata.org/entity/Q1928529
FreePlace183,-3.7197866,40.3925766,"'28019,ES,Madrid,Madrid,Calle de Belmonte de tajo 26,Madrid'",28019,ES,Madrid,Madrid,Calle de Belmonte de tajo 26,Madrid,Carabanchel,https://wikidata.org/entity/Q1001991
FreePlace184,-3.7295583,40.428815,"'28008,ES,Madrid,Madrid,Avenida de Valladolid 43,Madrid'",28008,ES,Madrid,Madrid,Avenida de Valladolid 43,Madrid,Moncloa-Aravaca,https://wikidata.org/entity/Q2017682
FreePlace185,-3.6864316,40.4262033,"'28001,ES,Madrid,Madrid,Calle de Claudio coello 42,Madrid'",28001,ES,Madrid,Madrid,Calle de Claudio coello 42,Madrid,Salamanca,https://wikidata.org/entity/Q1773521
FreePlace186,-3.69816,40.41829,"'28014,ES,Madrid,Madrid,Calle de Alcalá 30,Madrid'",28014,ES,Madrid,Madrid,Calle de Alcalá 30,Madrid,Centro,https://wikidata.org/entity/Q1763376
FreePlace187,-3.70412,40.447825,"'28039,ES,Madrid,Madrid,Calle del Doctor santero 2,Madrid'",28039,ES,Madrid,Madrid,Calle del Doctor santero 2,Madrid,Tetuán,https://wikidata.org/entity/Q1773540
FreePlace188,-3.6990633,40.41802,"'28014,ES,Madrid,Madrid,Calle de Alcalá 22,Madrid'",28014,ES,Madrid,Madrid,Calle de Alcalá 22,Madrid,Centro,https://wikidata.org/entity/Q1763376
FreePlace189,-3.7233266,40.41129,"'28011,ES,Madrid,Madrid,Paseo de la Ermita del santo 16,Madrid'",28011,ES,Madrid,Madrid,Paseo de la Ermita del santo 16,Madrid,Latina,https://wikidata.org/entity/Q794954
FreePlace190,-3.682435,40.476685,"'28046,ES,Madrid,Madrid,Calle de Mauricio legendre 38D,Madrid'",28046,ES,Madrid,Madrid,Calle de Mauricio legendre 38D,Madrid,Chamartín,https://wikidata.org/entity/Q1766348
FreePlace191,-3.6573,40.4890199,"'28050,ES,Madrid,Madrid,Plaza del Alcalde moreno torres 21,Madrid'",28050,ES,Madrid,Madrid,Plaza del Alcalde moreno torres 21,Madrid,Hortaleza,https://wikidata.org/entity/Q1928529
FreePlace192,-3.6823166,40.4772416,"'28046,ES,Madrid,Madrid,Calle de Mauricio legendre 38D,Madrid'",28046,ES,Madrid,Madrid,Calle de Mauricio legendre 38D,Madrid,Chamartín,https://wikidata.org/entity/Q1766348
FreePlace193,-3.6824366,40.47676,"'28046,ES,Madrid,Madrid,Calle de Mauricio legendre 38D,Madrid'",28046,ES,Madrid,Madrid,Calle de Mauricio legendre 38D,Madrid,Chamartín,https://wikidata.org/entity/Q1766348
FreePlace194,-3.64327,40.42849,"'28017,ES,Madrid,Madrid,Calle de Ezequiel solana 80,Madrid'",28017,ES,Madrid,Madrid,Calle de Ezequiel solana 80,Madrid,Ciudad Lineal,https://wikidata.org/entity/Q1763694
FreePlace195,-3.6823366,40.4768016,"'28046,ES,Madrid,Madrid,Calle de Mauricio legendre 38D,Madrid'",28046,ES,Madrid,Madrid,Calle de Mauricio legendre 38D,Madrid,Chamartín,https://wikidata.org/entity/Q1766348
FreePlace196,-3.692685,40.4191783,"'28014,ES,Madrid,Madrid,Plaza de Cibeles 1,Madrid'",28014,ES,Madrid,Madrid,Plaza de Cibeles 1,Madrid,Retiro,https://wikidata.org/entity/Q2002296
FreePlace197,-3.6824716,40.4766216,"'28046,ES,Madrid,Madrid,Calle de Mauricio legendre 38D,Madrid'",28046,ES,Madrid,Madrid,Calle de Mauricio legendre 38D,Madrid,Chamartín,https://wikidata.org/entity/Q1766348
FreePlace198,-3.6938783,40.392655,"'28045,ES,Madrid,Madrid,Calle de Embajadores 192,Madrid'",28045,ES,Madrid,Madrid,Calle de Embajadores 192,Madrid,Arganzuela,https://wikidata.org/entity/Q2000929
FreePlace199,-3.712095,40.4081766,"'28005,ES,Madrid,Madrid,Plaza de la Virgen de la paloma 1,Madrid'",28005,ES,Madrid,Madrid,Plaza de la Virgen de la paloma 1,Madrid,Centro,https://wikidata.org/entity/Q1763376
FreePlace200,-3.6513566,40.4060516,"'28030,ES,Madrid,Madrid,Calle del Arroyo de las pilillas 1,Madrid'",28030,ES,Madrid,Madrid,Calle del Arroyo de las pilillas 1,Madrid,Moratalaz,https://wikidata.org/entity/Q2076109
FreePlace201,-3.6656533,40.4850233,"'28050,ES,Madrid,Madrid,Calle de Dulce chacón 15,Madrid'",28050,ES,Madrid,Madrid,Calle de Dulce chacón 15,Madrid,Hortaleza,https://wikidata.org/entity/Q1928529
FreePlace202,-3.6656066,40.484995,"'28050,ES,Madrid,Madrid,Calle de Dulce chacón 15,Madrid'",28050,ES,Madrid,Madrid,Calle de Dulce chacón 15,Madrid,Hortaleza,https://wikidata.org/entity/Q1928529
FreePlace203,-3.6484233,40.4370349,"'28027,ES,Madrid,Madrid,Calle de José del hierro ,Madrid'",28027,ES,Madrid,Madrid,Calle de José del hierro,Madrid,Ciudad Lineal,https://wikidata.org/entity/Q1763694
FreePlace204,-3.6298516,40.4290583,"'28037,ES,Madrid,Madrid,Calle de Mieres 16,Madrid'",28037,ES,Madrid,Madrid,Calle de Mieres 16,Madrid,San Blas-Canillejas,https://wikidata.org/entity/Q2001937
FreePlace205,-3.6513133,40.4497549,"'28043,ES,Madrid,Madrid,Calle de Arturo soria 128,Madrid'",28043,ES,Madrid,Madrid,Calle de Arturo soria 128,Madrid,Ciudad Lineal,https://wikidata.org/entity/Q1763694
FreePlace206,-3.6750349,40.4216166,"'28009,ES,Madrid,Madrid,Calle de Fernán gonzález 41,Madrid'",28009,ES,Madrid,Madrid,Calle de Fernán gonzález 41,Madrid,Salamanca,https://wikidata.org/entity/Q1773521
FreePlace207,-3.704075,40.44763,"'28039,ES,Madrid,Madrid,Calle del Doctor santero 2,Madrid'",28039,ES,Madrid,Madrid,Calle del Doctor santero 2,Madrid,Tetuán,https://wikidata.org/entity/Q1773540
FreePlace208,-3.7087683,40.4096233,"'28005,ES,Madrid,Madrid,Calle de López silva 10,Madrid'",28005,ES,Madrid,Madrid,Calle de López silva 10,Madrid,Centro,https://wikidata.org/entity/Q1763376
FreePlace209,-3.6947433,40.4351633,"'28010,ES,Madrid,Madrid,Calle de Fernández de la hoz 29,Madrid'",28010,ES,Madrid,Madrid,Calle de Fernández de la hoz 29,Madrid,Chamberí,https://wikidata.org/entity/Q1763370
FreePlace210,-3.6832466,40.43459,"'28006,ES,Madrid,Madrid,Calle de Velázquez 93,Madrid'",28006,ES,Madrid,Madrid,Calle de Velázquez 93,Madrid,Salamanca,https://wikidata.org/entity/Q1773521
FreePlace211,-3.6411516,40.4299283,"'28017,ES,Madrid,Madrid,Calle de Ascao 29,Madrid'",28017,ES,Madrid,Madrid,Calle de Ascao 29,Madrid,Ciudad Lineal,https://wikidata.org/entity/Q1763694
FreePlace212,-3.6824016,40.4767866,"'28046,ES,Madrid,Madrid,Calle de Mauricio legendre 38D,Madrid'",28046,ES,Madrid,Madrid,Calle de Mauricio legendre 38D,Madrid,Chamartín,https://wikidata.org/entity/Q1766348
FreePlace213,-3.6975416,40.4413466,"'28003,ES,Madrid,Madrid,Calle de Alonso cano 46,Madrid'",28003,ES,Madrid,Madrid,Calle de Alonso cano 46,Madrid,Chamberí,https://wikidata.org/entity/Q1763370
FreePlace214,-3.6639983,40.4302483,"'28028,ES,Madrid,Madrid,Calle de Alejandro gonzález 2,Madrid'",28028,ES,Madrid,Madrid,Calle de Alejandro gonzález 2,Madrid,Salamanca,https://wikidata.org/entity/Q1773521
FreePlace215,-3.6446933,40.4401,"'28027,ES,Madrid,Madrid,Calle del Sol naciente 26,Madrid'",28027,ES,Madrid,Madrid,Calle del Sol naciente 26,Madrid,Ciudad Lineal,https://wikidata.org/entity/Q1763694
FreePlace216,-3.6582766,40.392725,"'28038,ES,Madrid,Madrid,Avenida de la Albufera 137,Madrid'",28038,ES,Madrid,Madrid,Avenida de la Albufera 137,Madrid,Puente de Vallecas,https://wikidata.org/entity/Q2003054
FreePlace217,-3.6691516,40.4052466,"'28007,ES,Madrid,Madrid,Calle de Carlos y guillermo fernández shaw 1C,Madrid'",28007,ES,Madrid,Madrid,Calle de Carlos y guillermo fernández shaw 1C,Madrid,Retiro,https://wikidata.org/entity/Q2002296
FreePlace218,-3.6824016,40.476765,"'28046,ES,Madrid,Madrid,Calle de Mauricio legendre 38D,Madrid'",28046,ES,Madrid,Madrid,Calle de Mauricio legendre 38D,Madrid,Chamartín,https://wikidata.org/entity/Q1766348
FreePlace219,-3.6740366,40.4261183,"'28006,ES,Madrid,Madrid,Calle de Alcántara 4,Madrid'",28006,ES,Madrid,Madrid,Calle de Alcántara 4,Madrid,Salamanca,https://wikidata.org/entity/Q1773521
FreePlace220,-3.6818416,40.4220016,"'28009,ES,Madrid,Madrid,Calle de Alcalá 111,Madrid'",28009,ES,Madrid,Madrid,Calle de Alcalá 111,Madrid,Salamanca,https://wikidata.org/entity/Q1773521
FreePlace221,-3.7060133,40.4283666,"'28015,ES,Madrid,Madrid,Calle de San bernardo 85,Madrid'",28015,ES,Madrid,Madrid,Calle de San bernardo 85,Madrid,Centro,https://wikidata.org/entity/Q1763376
FreePlace222,-3.6971266,40.4289016,"'28010,ES,Madrid,Madrid,Calle de Covarrubias 5,Madrid'",28010,ES,Madrid,Madrid,Calle de Covarrubias 5,Madrid,Chamberí,https://wikidata.org/entity/Q1763370
FreePlace223,-3.6919766,40.4253866,"'28004,ES,Madrid,Madrid,Calle Marqués de la ensenada 1B,Madrid'",28004,ES,Madrid,Madrid,Calle Marqués de la ensenada 1B,Madrid,Chamberí,https://wikidata.org/entity/Q1763370
FreePlace224,-3.6302916,40.4358716,"'28037,ES,Madrid,Madrid,Calle Santa leonor 51,Madrid'",28037,ES,Madrid,Madrid,Calle Santa leonor 51,Madrid,San Blas-Canillejas,https://wikidata.org/entity/Q2001937
FreePlace225,-3.682385,40.4767066,"'28046,ES,Madrid,Madrid,Calle de Mauricio legendre 38D,Madrid'",28046,ES,Madrid,Madrid,Calle de Mauricio legendre 38D,Madrid,Chamartín,https://wikidata.org/entity/Q1766348
FreePlace226,-3.7087516,40.41108,"'28005,ES,Madrid,Madrid,Calle de Toledo 67,Madrid'",28005,ES,Madrid,Madrid,Calle de Toledo 67,Madrid,Centro,https://wikidata.org/entity/Q1763376
FreePlace227,-3.6962116,40.4226599,"'28004,ES,Madrid,Madrid,Calle de Gravina 23,Madrid'",28004,ES,Madrid,Madrid,Calle de Gravina 23,Madrid,Centro,https://wikidata.org/entity/Q1763376
FreePlace228,-3.6821316,40.476685,"'28046,ES,Madrid,Madrid,Calle de Mauricio legendre 38D,Madrid'",28046,ES,Madrid,Madrid,Calle de Mauricio legendre 38D,Madrid,Chamartín,https://wikidata.org/entity/Q1766348
FreePlace229,-3.6823483,40.476635,"'28046,ES,Madrid,Madrid,Calle de Mauricio legendre 38D,Madrid'",28046,ES,Madrid,Madrid,Calle de Mauricio legendre 38D,Madrid,Chamartín,https://wikidata.org/entity/Q1766348
FreePlace230,-3.6825016,40.4765199,"'28046,ES,Madrid,Madrid,Calle de Mauricio legendre 38D,Madrid'",28046,ES,Madrid,Madrid,Calle de Mauricio legendre 38D,Madrid,Chamartín,https://wikidata.org/entity/Q1766348
FreePlace231,-3.6822549,40.476995,"'28046,ES,Madrid,Madrid,Calle de Mauricio legendre 38D,Madrid'",28046,ES,Madrid,Madrid,Calle de Mauricio legendre 38D,Madrid,Chamartín,https://wikidata.org/entity/Q1766348
FreePlace232,-3.6851883,40.4455183,"'28002,ES,Madrid,Madrid,Plaza de la República argentina 6,Madrid'",28002,ES,Madrid,Madrid,Plaza de la República argentina 6,Madrid,Chamartín,https://wikidata.org/entity/Q1766348
FreePlace233,-3.6824333,40.4768133,"'28046,ES,Madrid,Madrid,Calle de Mauricio legendre 38D,Madrid'",28046,ES,Madrid,Madrid,Calle de Mauricio legendre 38D,Madrid,Chamartín,https://wikidata.org/entity/Q1766348
FreePlace234,-3.65446,40.4300649,"'28017,ES,Madrid,Madrid,Calle de Cipriano sancho 36,Madrid'",28017,ES,Madrid,Madrid,Calle de Cipriano sancho 36,Madrid,Ciudad Lineal,https://wikidata.org/entity/Q1763694
FreePlace235,-3.650335,40.4330816,"'28027,ES,Madrid,Madrid,Calle del Concejal julio gómez 1,Madrid'",28027,ES,Madrid,Madrid,Calle del Concejal julio gómez 1,Madrid,Ciudad Lineal,https://wikidata.org/entity/Q1763694
FreePlace236,-3.6883983,40.42189,"'28001,ES,Madrid,Madrid,Calle de Serrano 10,Madrid'",28001,ES,Madrid,Madrid,Calle de Serrano 10,Madrid,Salamanca,https://wikidata.org/entity/Q1773521
FreePlace237,-3.6260016,40.4378633,"'28037,ES,Madrid,Madrid,Calle Albasánz 50,Madrid'",28037,ES,Madrid,Madrid,Calle Albasánz 50,Madrid,San Blas-Canillejas,https://wikidata.org/entity/Q2001937
FreePlace238,-3.637405,40.4085199,"'28030,ES,Madrid,Madrid,Avenida del Doctor garcía tapia 194,Madrid'",28030,ES,Madrid,Madrid,Avenida del Doctor garcía tapia 194,Madrid,Moratalaz,https://wikidata.org/entity/Q2076109
FreePlace239,-3.7113683,40.411485,"'28005,ES,Madrid,Madrid,Plaza de Puerta de moros 6,Madrid'",28005,ES,Madrid,Madrid,Plaza de Puerta de moros 6,Madrid,Centro,https://wikidata.org/entity/Q1763376
FreePlace240,-3.7298066,40.426015,"'28008,ES,Madrid,Madrid,Calle de Santovenia 1,Madrid'",28008,ES,Madrid,Madrid,Calle de Santovenia 1,Madrid,Moncloa-Aravaca,https://wikidata.org/entity/Q2017682
FreePlace241,-3.62989,40.4105049,"'28030,ES,Madrid,Madrid,Calle de José bergamín ,Madrid'",28030,ES,Madrid,Madrid,Calle de José bergamín,Madrid,Moratalaz,https://wikidata.org/entity/Q2076109
FreePlace242,-3.713785,40.4016,"'28005,ES,Madrid,Madrid,Calle de Toledo 181,Madrid'",28005,ES,Madrid,Madrid,Calle de Toledo 181,Madrid,Arganzuela,https://wikidata.org/entity/Q2000929
FreePlace243,-3.6740716,40.4009983,"'28007,ES,Madrid,Madrid,Avenida de la Ciudad de barcelona 81B,Madrid'",28007,ES,Madrid,Madrid,Avenida de la Ciudad de barcelona 81B,Madrid,Retiro,https://wikidata.org/entity/Q2002296
FreePlace244,-3.66916,40.4052549,"'28007,ES,Madrid,Madrid,Calle de Carlos y guillermo fernández shaw 1C,Madrid'",28007,ES,Madrid,Madrid,Calle de Carlos y guillermo fernández shaw 1C,Madrid,Retiro,https://wikidata.org/entity/Q2002296
FreePlace245,-3.6812283,40.4283199,"'28001,ES,Madrid,Madrid,Calle de Castelló 61,Madrid'",28001,ES,Madrid,Madrid,Calle de Castelló 61,Madrid,Salamanca,https://wikidata.org/entity/Q1773521
FreePlace246,-3.70374,40.4266983,"'28004,ES,Madrid,Madrid,Calle de San andrés 14,Madrid'",28004,ES,Madrid,Madrid,Calle de San andrés 14,Madrid,Centro,https://wikidata.org/entity/Q1763376
FreePlace247,-3.7337016,40.428975,"'28008,ES,Madrid,Madrid,Paseo del Comandante fortea 68,Madrid'",28008,ES,Madrid,Madrid,Paseo del Comandante fortea 68,Madrid,Moncloa-Aravaca,https://wikidata.org/entity/Q2017682
FreePlace248,-3.6952233,40.4485283,"'28020,ES,Madrid,Madrid,Calle de Orense 8,Madrid'",28020,ES,Madrid,Madrid,Calle de Orense 8,Madrid,Tetuán,https://wikidata.org/entity/Q1773540
FreePlace249,-3.6791483,40.4023716,"'28007,ES,Madrid,Madrid,Calle de León gil de palacio 5,Madrid'",28007,ES,Madrid,Madrid,Calle de León gil de palacio 5,Madrid,Retiro,https://wikidata.org/entity/Q2002296
FreePlace250,-3.7133233,40.4313866,"'28015,ES,Madrid,Madrid,Calle de Guzmán el bueno 10,Madrid'",28015,ES,Madrid,Madrid,Calle de Guzmán el bueno 10,Madrid,Chamberí,https://wikidata.org/entity/Q1763370
FreePlace251,-3.7095266,40.4509,"'28039,ES,Madrid,Madrid,Avenida del Doctor federico rubio y gali 27,Madrid'",28039,ES,Madrid,Madrid,Avenida del Doctor federico rubio y gali 27,Madrid,Tetuán,https://wikidata.org/entity/Q1773540
FreePlace252,-3.7288716,40.414035,"'28011,ES,Madrid,Madrid,Plaza de la Puerta del ángel 3,Madrid'",28011,ES,Madrid,Madrid,Plaza de la Puerta del ángel 3,Madrid,Latina,https://wikidata.org/entity/Q794954
FreePlace253,-3.6542483,40.3766,"'28018,ES,Madrid,Madrid,Calle de Novecento 5,Madrid'",28018,ES,Madrid,Madrid,Calle de Novecento 5,Madrid,Puente de Vallecas,https://wikidata.org/entity/Q2003054
FreePlace254,-3.6846433,40.486655,"'28034,ES,Madrid,Madrid,Avenida del Llano castellano 2,Madrid'",28034,ES,Madrid,Madrid,Avenida del Llano castellano 2,Madrid,Fuencarral-El Pardo,https://wikidata.org/entity/Q656196
FreePlace255,-3.682435,40.4768366,"'28046,ES,Madrid,Madrid,Calle de Mauricio legendre 38D,Madrid'",28046,ES,Madrid,Madrid,Calle de Mauricio legendre 38D,Madrid,Chamartín,https://wikidata.org/entity/Q1766348
FreePlace256,-3.6922833,40.3900966,"'28045,ES,Madrid,Madrid,Calle de Embajadores 183B,Madrid'",28045,ES,Madrid,Madrid,Calle de Embajadores 183B,Madrid,Arganzuela,https://wikidata.org/entity/Q2000929
FreePlace257,-3.7070066,40.5031683,"'28049,ES,Madrid,Madrid,Calle Monasterio de las huelgas 17,Madrid'",28049,ES,Madrid,Madrid,Calle Monasterio de las huelgas 17,Madrid,Mirasierra,https://wikidata.org/entity/Q31134
FreePlace258,-3.6953099,40.4440233,"'28003,ES,Madrid,Madrid,Calle de María de guzmán 65,Madrid'",28003,ES,Madrid,Madrid,Calle de María de guzmán 65,Madrid,Chamberí,https://wikidata.org/entity/Q1763370
FreePlace259,-3.6929766,40.4108683,"'28014,ES,Madrid,Madrid,Calle de Almadén 28,Madrid'",28014,ES,Madrid,Madrid,Calle de Almadén 28,Madrid,Centro,https://wikidata.org/entity/Q1763376
FreePlace260,-3.6806099,40.4215433,"'28009,ES,Madrid,Madrid,Calle de Aguirre 7,Madrid'",28009,ES,Madrid,Madrid,Calle de Aguirre 7,Madrid,Salamanca,https://wikidata.org/entity/Q1773521
FreePlace261,-3.6657833,40.4324766,"'28028,ES,Madrid,Madrid,Avenida de los Toreros 47,Madrid'",28028,ES,Madrid,Madrid,Avenida de los Toreros 47,Madrid,Salamanca,https://wikidata.org/entity/Q1773521
FreePlace262,-3.643275,40.40636,"'28030,ES,Madrid,Madrid,Calle del Camino de los vinateros 127,Madrid'",28030,ES,Madrid,Madrid,Calle del Camino de los vinateros 127,Madrid,Moratalaz,https://wikidata.org/entity/Q2076109
FreePlace263,-3.6837383,40.43146,"'28006,ES,Madrid,Madrid,Calle de Velázquez 86,Madrid'",28006,ES,Madrid,Madrid,Calle de Velázquez 86,Madrid,Salamanca,https://wikidata.org/entity/Q1773521
FreePlace264,-3.7290683,40.4498433,"'28040,ES,Madrid,Madrid,Avenida Complutense ,Madrid'",28040,ES,Madrid,Madrid,Avenida Complutense,Madrid,Moncloa-Aravaca,https://wikidata.org/entity/Q2017682
FreePlace265,-3.7014216,40.4174133,"'28014,ES,Madrid,Madrid,Calle de Alcalá 8,Madrid'",28014,ES,Madrid,Madrid,Calle de Alcalá 8,Madrid,Centro,https://wikidata.org/entity/Q1763376
FreePlace266,-3.7038516,40.4267133,"'28004,ES,Madrid,Madrid,Plaza del Dos de mayo 9,Madrid'",28004,ES,Madrid,Madrid,Plaza del Dos de mayo 9,Madrid,Centro,https://wikidata.org/entity/Q1763376
FreePlace267,-3.6494783,40.4454633,"'28027,ES,Madrid,Madrid,Calle de Amara 9,Madrid'",28027,ES,Madrid,Madrid,Calle de Amara 9,Madrid,Ciudad Lineal,https://wikidata.org/entity/Q1763694
FreePlace268,-3.710375,40.4237033,"'28015,ES,Madrid,Madrid,Calle de los Reyes 23,Madrid'",28015,ES,Madrid,Madrid,Calle de los Reyes 23,Madrid,Centro,https://wikidata.org/entity/Q1763376
FreePlace269,-3.6765016,40.4609733,"'28016,ES,Madrid,Madrid,Avenida de Pío xii 3,Madrid'",28016,ES,Madrid,Madrid,Avenida de Pío xii 3,Madrid,Chamartín,https://wikidata.org/entity/Q1766348
FreePlace270,-3.6513733,40.4061683,"'28030,ES,Madrid,Madrid,Calle del Arroyo de las pilillas 1,Madrid'",28030,ES,Madrid,Madrid,Calle del Arroyo de las pilillas 1,Madrid,Moratalaz,https://wikidata.org/entity/Q2076109
FreePlace271,-3.6999966,40.388835,"'28026,ES,Madrid,Madrid,Calle de Antonio lópez 131,Madrid'",28026,ES,Madrid,Madrid,Calle de Antonio lópez 131,Madrid,Usera,https://wikidata.org/entity/Q953368
FreePlace272,-3.6758716,40.42484,"'28006,ES,Madrid,Madrid,Calle del Conde de peñalver 1,Madrid'",28006,ES,Madrid,Madrid,Calle del Conde de peñalver 1,Madrid,Salamanca,https://wikidata.org/entity/Q1773521
FreePlace273,-3.701985,40.4242266,"'28004,ES,Madrid,Madrid,Plaza de San ildefonso 5,Madrid'",28004,ES,Madrid,Madrid,Plaza de San ildefonso 5,Madrid,Centro,https://wikidata.org/entity/Q1763376
FreePlace274,-3.656105,40.4557033,"'28043,ES,Madrid,Madrid,Calle de Luis carlos vázquez 172,Madrid'",28043,ES,Madrid,Madrid,Calle de Luis carlos vázquez 172,Madrid,Ciudad Lineal,https://wikidata.org/entity/Q1763694
FreePlace275,-3.682325,40.4767016,"'28046,ES,Madrid,Madrid,Calle de Mauricio legendre 38D,Madrid'",28046,ES,Madrid,Madrid,Calle de Mauricio legendre 38D,Madrid,Chamartín,https://wikidata.org/entity/Q1766348
FreePlace276,-3.6708483,40.4821883,"'28033,ES,Madrid,Madrid,Calle de Caleruega 65,Madrid'",28033,ES,Madrid,Madrid,Calle de Caleruega 65,Madrid,Ciudad Lineal,https://wikidata.org/entity/Q1763694
FreePlace277,-3.6991283,40.435905,"'28010,ES,Madrid,Madrid,Calle de Santa engracia 68,Madrid'",28010,ES,Madrid,Madrid,Calle de Santa engracia 68,Madrid,Chamberí,https://wikidata.org/entity/Q1763370
FreePlace278,-3.7000083,40.4265716,"'28004,ES,Madrid,Madrid,Calle de Barceló 9,Madrid'",28004,ES,Madrid,Madrid,Calle de Barceló 9,Madrid,Centro,https://wikidata.org/entity/Q1763376
FreePlace279,-3.6637283,40.487695,"'28050,ES,Madrid,Madrid,Avenida de Manoteras 46B,Madrid'",28050,ES,Madrid,Madrid,Avenida de Manoteras 46B,Madrid,Hortaleza,https://wikidata.org/entity/Q1928529
FreePlace280,-3.7135933,40.4308866,"'28015,ES,Madrid,Madrid,Calle de Guzmán el bueno 5,Madrid'",28015,ES,Madrid,Madrid,Calle de Guzmán el bueno 5,Madrid,Chamberí,https://wikidata.org/entity/Q1763370
FreePlace281,-3.7127116,40.4063933,"'28005,ES,Madrid,Madrid,Paseo de Pontones 1,Madrid'",28005,ES,Madrid,Madrid,Paseo de Pontones 1,Madrid,Arganzuela,https://wikidata.org/entity/Q2000929
FreePlace282,-3.6825016,40.4765816,"'28046,ES,Madrid,Madrid,Calle de Mauricio legendre 38D,Madrid'",28046,ES,Madrid,Madrid,Calle de Mauricio legendre 38D,Madrid,Chamartín,https://wikidata.org/entity/Q1766348
FreePlace283,-3.7181866,40.4137549,"'28005,ES,Madrid,Madrid,Calle de Segovia 53,Madrid'",28005,ES,Madrid,Madrid,Calle de Segovia 53,Madrid,Arganzuela,https://wikidata.org/entity/Q2000929
FreePlace284,-3.6824216,40.4766966,"'28046,ES,Madrid,Madrid,Calle de Mauricio legendre 38D,Madrid'",28046,ES,Madrid,Madrid,Calle de Mauricio legendre 38D,Madrid,Chamartín,https://wikidata.org/entity/Q1766348
FreePlace285,-3.682305,40.47623,"'28046,ES,Madrid,Madrid,Calle de Mauricio legendre 38D,Madrid'",28046,ES,Madrid,Madrid,Calle de Mauricio legendre 38D,Madrid,Chamartín,https://wikidata.org/entity/Q1766348
FreePlace286,-3.6823499,40.4767683,"'28046,ES,Madrid,Madrid,Calle de Mauricio legendre 38D,Madrid'",28046,ES,Madrid,Madrid,Calle de Mauricio legendre 38D,Madrid,Chamartín,https://wikidata.org/entity/Q1766348
FreePlace287,-3.6779316,40.4516233,"'28002,ES,Madrid,Madrid,Avenida de Concha espina 69,Madrid'",28002,ES,Madrid,Madrid,Avenida de Concha espina 69,Madrid,Chamartín,https://wikidata.org/entity/Q1766348
FreePlace288,-3.6801916,40.4164433,"'28009,ES,Madrid,Madrid,Paseo de Fernán núñez ,Madrid'",28009,ES,Madrid,Madrid,Paseo de Fernán núñez,Madrid,Retiro,https://wikidata.org/entity/Q2002296
FreePlace289,-3.72121,40.3924016,"'28019,ES,Madrid,Madrid,Calle de los Hermanos del moral 28,Madrid'",28019,ES,Madrid,Madrid,Calle de los Hermanos del moral 28,Madrid,Carabanchel,https://wikidata.org/entity/Q1001991
FreePlace290,-3.7348583,40.416475,"'28011,ES,Madrid,Madrid,Ronda del Lago 2,Madrid'",28011,ES,Madrid,Madrid,Ronda del Lago 2,Madrid,Moncloa-Aravaca,https://wikidata.org/entity/Q2017682
FreePlace291,-3.658555,40.4931766,"'28050,ES,Madrid,Madrid,Calle de la Princesa de éboli 41,Madrid'",28050,ES,Madrid,Madrid,Calle de la Princesa de éboli 41,Madrid,Hortaleza,https://wikidata.org/entity/Q1928529
FreePlace292,-3.6958433,40.4161616,"'28014,ES,Madrid,Madrid,Calle del Marqués de cubas 18,Madrid'",28014,ES,Madrid,Madrid,Calle del Marqués de cubas 18,Madrid,Centro,https://wikidata.org/entity/Q1763376
FreePlace293,-3.6651399,40.4260083,"'28028,ES,Madrid,Madrid,Paseo del Marqués de zafra 26,Madrid'",28028,ES,Madrid,Madrid,Paseo del Marqués de zafra 26,Madrid,Salamanca,https://wikidata.org/entity/Q1773521
FreePlace294,-3.6822733,40.4766166,"'28046,ES,Madrid,Madrid,Calle de Mauricio legendre 38D,Madrid'",28046,ES,Madrid,Madrid,Calle de Mauricio legendre 38D,Madrid,Chamartín,https://wikidata.org/entity/Q1766348
FreePlace295,-3.6486183,40.4329816,"'28027,ES,Madrid,Madrid,Calle de Alcalá 335,Madrid'",28027,ES,Madrid,Madrid,Calle de Alcalá 335,Madrid,Ciudad Lineal,https://wikidata.org/entity/Q1763694
FreePlace296,-3.66944,40.4156983,"'28007,ES,Madrid,Madrid,Calle del Doctor esquerdo 101,Madrid'",28007,ES,Madrid,Madrid,Calle del Doctor esquerdo 101,Madrid,Retiro,https://wikidata.org/entity/Q2002296
FreePlace297,-3.7037283,40.4097933,"'28012,ES,Madrid,Madrid,Plaza Nelson mandela ,Madrid'",28012,ES,Madrid,Madrid,Plaza Nelson mandela,Madrid,Centro,https://wikidata.org/entity/Q1763376
FreePlace298,-3.65908,40.4913683,"'28050,ES,Madrid,Madrid,Calle de la Princesa de éboli 3,Madrid'",28050,ES,Madrid,Madrid,Calle de la Princesa de éboli 3,Madrid,Hortaleza,https://wikidata.org/entity/Q1928529
FreePlace299,-3.663865,40.4305966,"'28028,ES,Madrid,Madrid,Calle de Alcalá 200B,Madrid'",28028,ES,Madrid,Madrid,Calle de Alcalá 200B,Madrid,Salamanca,https://wikidata.org/entity/Q1773521
FreePlace300,-3.7114833,40.4114466,"'28005,ES,Madrid,Madrid,Plaza de Puerta de moros 6,Madrid'",28005,ES,Madrid,Madrid,Plaza de Puerta de moros 6,Madrid,Centro,https://wikidata.org/entity/Q1763376
FreePlace301,-3.7116366,40.4193933,"'28013,ES,Madrid,Madrid,Calle de Pavia 6,Madrid'",28013,ES,Madrid,Madrid,Calle de Pavia 6,Madrid,Centro,https://wikidata.org/entity/Q1763376
FreePlace302,-3.6922033,40.4352616,"'28010,ES,Madrid,Madrid,Paseo del General martínez campos 42B,Madrid'",28010,ES,Madrid,Madrid,Paseo del General martínez campos 42B,Madrid,Chamberí,https://wikidata.org/entity/Q1763370
FreePlace303,-3.7163983,40.3981066,"'28019,ES,Madrid,Madrid,Glorieta Marqués de vadillo 8,Madrid'",28019,ES,Madrid,Madrid,Glorieta Marqués de vadillo 8,Madrid,Carabanchel,https://wikidata.org/entity/Q1001991
FreePlace304,-3.6742616,40.4258266,"'28006,ES,Madrid,Madrid,Calle de Hermosilla 101,Madrid'",28006,ES,Madrid,Madrid,Calle de Hermosilla 101,Madrid,Salamanca,https://wikidata.org/entity/Q1773521
FreePlace305,-3.6628716,40.4394733,"'28028,ES,Madrid,Madrid,Avenida de Bruselas 56,Madrid'",28028,ES,Madrid,Madrid,Avenida de Bruselas 56,Madrid,Salamanca,https://wikidata.org/entity/Q1773521
FreePlace306,-3.664445,40.4034799,"'28038,ES,Madrid,Madrid,Calle de las Moreras 14,Madrid'",28038,ES,Madrid,Madrid,Calle de las Moreras 14,Madrid,Puente de Vallecas,https://wikidata.org/entity/Q2003054
FreePlace307,-3.7040333,40.47838,"'28029,ES,Madrid,Madrid,Calle de Ginzo de limia 35,Madrid'",28029,ES,Madrid,Madrid,Calle de Ginzo de limia 35,Madrid,Fuencarral-El Pardo,https://wikidata.org/entity/Q656196
FreePlace308,-3.7371649,40.4029316,"'28047,ES,Madrid,Madrid,Calle de Riocabado 1,Madrid'",28047,ES,Madrid,Madrid,Calle de Riocabado 1,Madrid,Latina,https://wikidata.org/entity/Q794954
FreePlace309,-3.733755,40.4288633,"'28008,ES,Madrid,Madrid,Paseo del Comandante fortea 66,Madrid'",28008,ES,Madrid,Madrid,Paseo del Comandante fortea 66,Madrid,Moncloa-Aravaca,https://wikidata.org/entity/Q2017682
FreePlace310,-3.7288333,40.4089983,"'28011,ES,Madrid,Madrid,Calle de Caramuel 51,Madrid'",28011,ES,Madrid,Madrid,Calle de Caramuel 51,Madrid,Latina,https://wikidata.org/entity/Q794954
FreePlace311,-3.719845,40.4347583,"'28008,ES,Madrid,Madrid,Paseo de Moret 1A,Madrid'",28008,ES,Madrid,Madrid,Paseo de Moret 1A,Madrid,Moncloa-Aravaca,https://wikidata.org/entity/Q2017682
FreePlace312,-3.6993866,40.4208583,"'28004,ES,Madrid,Madrid,Plaza de Pedro zerolo 14,Madrid'",28004,ES,Madrid,Madrid,Plaza de Pedro zerolo 14,Madrid,Centro,https://wikidata.org/entity/Q1763376
FreePlace313,-3.7165483,40.3981566,"'28019,ES,Madrid,Madrid,Glorieta Marqués de vadillo 9,Madrid'",28019,ES,Madrid,Madrid,Glorieta Marqués de vadillo 9,Madrid,Carabanchel,https://wikidata.org/entity/Q1001991
FreePlace314,-3.70657,40.397435,"'28005,ES,Madrid,Madrid,Paseo Yeserías 45,Madrid'",28005,ES,Madrid,Madrid,Paseo Yeserías 45,Madrid,Arganzuela,https://wikidata.org/entity/Q2000929
FreePlace315,-3.663745,40.4877216,"'28050,ES,Madrid,Madrid,Avenida de Manoteras 46B,Madrid'",28050,ES,Madrid,Madrid,Avenida de Manoteras 46B,Madrid,Hortaleza,https://wikidata.org/entity/Q1928529
FreePlace316,-3.693615,40.4112733,"'28014,ES,Madrid,Madrid,Calle de la Alameda 16,Madrid'",28014,ES,Madrid,Madrid,Calle de la Alameda 16,Madrid,Centro,https://wikidata.org/entity/Q1763376
FreePlace317,-3.7004616,40.4267299,"'28004,ES,Madrid,Madrid,Calle de Churruca 1,Madrid'",28004,ES,Madrid,Madrid,Calle de Churruca 1,Madrid,Centro,https://wikidata.org/entity/Q1763376
FreePlace318,-3.6932133,40.41842,"'28014,ES,Madrid,Madrid,Paseo del Prado 1,Madrid'",28014,ES,Madrid,Madrid,Paseo del Prado 1,Madrid,Retiro,https://wikidata.org/entity/Q2002296
FreePlace319,-3.66966,40.4155783,"'28007,ES,Madrid,Madrid,Calle del Doctor esquerdo 101,Madrid'",28007,ES,Madrid,Madrid,Calle del Doctor esquerdo 101,Madrid,Retiro,https://wikidata.org/entity/Q2002296
FreePlace320,-3.6739183,40.4682666,"'28016,ES,Madrid,Madrid,Avenida de Pío xii 77,Madrid'",28016,ES,Madrid,Madrid,Avenida de Pío xii 77,Madrid,Chamartín,https://wikidata.org/entity/Q1766348
FreePlace321,-3.7333466,40.4332016,"'28008,ES,Madrid,Madrid,Avenida de Valladolid 83,Madrid'",28008,ES,Madrid,Madrid,Avenida de Valladolid 83,Madrid,Moncloa-Aravaca,https://wikidata.org/entity/Q2017682
FreePlace322,-3.6690883,40.4051833,"'28007,ES,Madrid,Madrid,Calle de Carlos y guillermo fernández shaw 1F,Madrid'",28007,ES,Madrid,Madrid,Calle de Carlos y guillermo fernández shaw 1F,Madrid,Retiro,https://wikidata.org/entity/Q2002296
FreePlace323,-3.698985,40.4419116,"'28003,ES,Madrid,Madrid,Calle de Ríos rosas 30,Madrid'",28003,ES,Madrid,Madrid,Calle de Ríos rosas 30,Madrid,Chamberí,https://wikidata.org/entity/Q1763370
FreePlace324,-3.7009216,40.4573716,"'28020,ES,Madrid,Madrid,Calle de San germán 74,Madrid'",28020,ES,Madrid,Madrid,Calle de San germán 74,Madrid,Tetuán,https://wikidata.org/entity/Q1773540
FreePlace325,-3.7035133,40.445915,"'28003,ES,Madrid,Madrid,Calle de Santa engracia 179,Madrid'",28003,ES,Madrid,Madrid,Calle de Santa engracia 179,Madrid,Chamberí,https://wikidata.org/entity/Q1763370
FreePlace326,-3.6863066,40.49939,"'28034,ES,Madrid,Madrid,Calle de Nuestra señora de valverde 148,Madrid'",28034,ES,Madrid,Madrid,Calle de Nuestra señora de valverde 148,Madrid,Fuencarral-El Pardo,https://wikidata.org/entity/Q656196
FreePlace327,-3.7002283,40.3887216,"'28026,ES,Madrid,Madrid,Calle de Antonio lópez 168,Madrid'",28026,ES,Madrid,Madrid,Calle de Antonio lópez 168,Madrid,Usera,https://wikidata.org/entity/Q953368
FreePlace328,-3.6451616,40.4084166,"'28030,ES,Madrid,Madrid,Avenida de Moratalaz 166,Madrid'",28030,ES,Madrid,Madrid,Avenida de Moratalaz 166,Madrid,Moratalaz,https://wikidata.org/entity/Q2076109
FreePlace329,-3.742195,40.39063,"'28025,ES,Madrid,Madrid,Calle de la Laguna 95,Madrid'",28025,ES,Madrid,Madrid,Calle de la Laguna 95,Madrid,Carabanchel,https://wikidata.org/entity/Q1001991
FreePlace330,-3.725425,40.405475,"'28011,ES,Madrid,Madrid,Jardín El capricho ,Madrid'",28011,ES,Madrid,Madrid,Jardín El capricho,Madrid,Latina,https://wikidata.org/entity/Q794954
FreePlace331,-3.6655999,40.4643783,"'28033,ES,Madrid,Madrid,Calle de Arturo soria 243B,Madrid'",28033,ES,Madrid,Madrid,Calle de Arturo soria 243B,Madrid,Ciudad Lineal,https://wikidata.org/entity/Q1763694
FreePlace332,-3.7299133,40.4036266,"'28047,ES,Madrid,Madrid,Calle Cjal. francisco josé jiménez martín 2,Madrid'",28047,ES,Madrid,Madrid,Calle Cjal. francisco josé jiménez martín 2,Madrid,Latina,https://wikidata.org/entity/Q794954
FreePlace333,-3.688775,40.43562,"'28046,ES,Madrid,Madrid,Glorieta de Emilio castelar ,Madrid'",28046,ES,Madrid,Madrid,Glorieta de Emilio castelar,Madrid,Salamanca,https://wikidata.org/entity/Q1773521
FreePlace334,-3.6062966,40.4352516,"'28022,ES,Madrid,Madrid,Plaza de Grecia 1,Madrid'",28022,ES,Madrid,Madrid,Plaza de Grecia 1,Madrid,San Blas-Canillejas,https://wikidata.org/entity/Q2001937
FreePlace335,-3.6909183,40.3889816,"'28045,ES,Madrid,Madrid,Calle del Sodio 1,Madrid'",28045,ES,Madrid,Madrid,Calle del Sodio 1,Madrid,Arganzuela,https://wikidata.org/entity/Q2000929
FreePlace336,-3.70333,40.465645,"'28039,ES,Madrid,Madrid,Calle de los Voluntarios catalanes 64B,Madrid'",28039,ES,Madrid,Madrid,Calle de los Voluntarios catalanes 64B,Madrid,Tetuán,https://wikidata.org/entity/Q1773540
FreePlace337,-3.7021566,40.40545,"'28012,ES,Madrid,Madrid,Glorieta de Embajadores 1,Madrid'",28012,ES,Madrid,Madrid,Glorieta de Embajadores 1,Madrid,Centro,https://wikidata.org/entity/Q1763376
FreePlace338,-3.6977716,40.396205,"'28045,ES,Madrid,Madrid,Calle del Divino vallés 28,Madrid'",28045,ES,Madrid,Madrid,Calle del Divino vallés 28,Madrid,Arganzuela,https://wikidata.org/entity/Q2000929
FreePlace339,-3.6667616,40.41205,"'28007,ES,Madrid,Madrid,Pasaje Can mayor 4,Madrid'",28007,ES,Madrid,Madrid,Pasaje Can mayor 4,Madrid,Retiro,https://wikidata.org/entity/Q2002296
FreePlace340,-3.6378233,40.4086716,"'28030,ES,Madrid,Madrid,Calle de Molina de segura 2,Madrid'",28030,ES,Madrid,Madrid,Calle de Molina de segura 2,Madrid,Moratalaz,https://wikidata.org/entity/Q2076109
FreePlace341,-3.5411383,40.436305,"'28821,ES,Madrid,Madrid, M-21 ,Madrid'",28821,ES,Madrid,Madrid,M-21,Madrid,,
FreePlace342,-3.6696383,40.3987333,"'28007,ES,Madrid,Madrid,Calle de Arregui y aruej 2,Madrid'",28007,ES,Madrid,Madrid,Calle de Arregui y aruej 2,Madrid,Retiro,https://wikidata.org/entity/Q2002296
FreePlace343,-3.674105,40.400785,"'28007,ES,Madrid,Madrid,Avenida de la Ciudad de barcelona 81B,Madrid'",28007,ES,Madrid,Madrid,Avenida de la Ciudad de barcelona 81B,Madrid,Retiro,https://wikidata.org/entity/Q2002296
FreePlace344,-3.6950566,40.4243366,"'28004,ES,Madrid,Madrid,Calle de Fernando vi 14,Madrid'",28004,ES,Madrid,Madrid,Calle de Fernando vi 14,Madrid,Centro,https://wikidata.org/entity/Q1763376
FreePlace345,-3.6579566,40.4074033,"'28030,ES,Madrid,Madrid,Plaza del Corregidor alonso de aguilar 5,Madrid'",28030,ES,Madrid,Madrid,Plaza del Corregidor alonso de aguilar 5,Madrid,Moratalaz,https://wikidata.org/entity/Q2076109
FreePlace346,-3.7176883,40.3900816,"'28019,ES,Madrid,Madrid,Calle Antoñita jiménez 21,Madrid'",28019,ES,Madrid,Madrid,Calle Antoñita jiménez 21,Madrid,Carabanchel,https://wikidata.org/entity/Q1001991
FreePlace347,-3.6946866,40.4238016,"'28004,ES,Madrid,Madrid,Plaza de Salesas 8,Madrid'",28004,ES,Madrid,Madrid,Plaza de Salesas 8,Madrid,Centro,https://wikidata.org/entity/Q1763376
FreePlace348,-3.6945033,40.4243133,"'28004,ES,Madrid,Madrid,Plaza de Salesas 2,Madrid'",28004,ES,Madrid,Madrid,Plaza de Salesas 2,Madrid,Chamberí,https://wikidata.org/entity/Q1763370
FreePlace349,-3.694505,40.4243199,"'28004,ES,Madrid,Madrid,Plaza de Salesas 2,Madrid'",28004,ES,Madrid,Madrid,Plaza de Salesas 2,Madrid,Centro,https://wikidata.org/entity/Q1763376
FreePlace350,-3.6893649,40.461715,"'28046,ES,Madrid,Madrid,Paseo de la Castellana 194,Madrid'",28046,ES,Madrid,Madrid,Paseo de la Castellana 194,Madrid,Chamartín,https://wikidata.org/entity/Q1766348
FreePlace351,-3.5949833,40.4529866,"'28042,ES,Madrid,Madrid, V.c. vía verde de la gasolina ,Madrid'",28042,ES,Madrid,Madrid,V.c. vía verde de la gasolina,Madrid,Barajas,https://wikidata.org/entity/Q807230
FreePlace352,-3.5950016,40.45295,"'28042,ES,Madrid,Madrid, V.c. vía verde de la gasolina ,Madrid'",28042,ES,Madrid,Madrid,V.c. vía verde de la gasolina,Madrid,Barajas,https://wikidata.org/entity/Q807230
FreePlace353,-3.6485633,40.4327249,"'28017,ES,Madrid,Madrid,Calle de José maría pereda 1,Madrid'",28017,ES,Madrid,Madrid,Calle de José maría pereda 1,Madrid,Ciudad Lineal,https://wikidata.org/entity/Q1763694
FreePlace354,-3.6807433,40.4225333,"'28009,ES,Madrid,Madrid,Calle de Alcalá 119,Madrid'",28009,ES,Madrid,Madrid,Calle de Alcalá 119,Madrid,Salamanca,https://wikidata.org/entity/Q1773521
FreePlace355,-3.685215,40.4794866,"'28046,ES,Madrid,Madrid,Paseo de la Castellana 298,Madrid'",28046,ES,Madrid,Madrid,Paseo de la Castellana 298,Madrid,Chamartín,https://wikidata.org/entity/Q1766348
FreePlace356,-3.7044733,40.4081533,"'28012,ES,Madrid,Madrid,Calle de Embajadores 52,Madrid'",28012,ES,Madrid,Madrid,Calle de Embajadores 52,Madrid,Centro,https://wikidata.org/entity/Q1763376
FreePlace357,-3.6993599,40.4362016,"'28010,ES,Madrid,Madrid,Calle de Santa engracia 89,Madrid'",28010,ES,Madrid,Madrid,Calle de Santa engracia 89,Madrid,Chamberí,https://wikidata.org/entity/Q1763370
FreePlace358,-3.6885866,40.4214883,"'28001,ES,Madrid,Madrid,Calle de Serrano 5,Madrid'",28001,ES,Madrid,Madrid,Calle de Serrano 5,Madrid,Salamanca,https://wikidata.org/entity/Q1773521
FreePlace359,-3.672305,40.4214766,"'28009,ES,Madrid,Madrid, Tunel de o'donnell 53,Madrid'",28009,ES,Madrid,Madrid,Tunel de odonnell 53,Madrid,Salamanca,https://wikidata.org/entity/Q1773521
FreePlace360,-3.721805,40.3932366,"'28019,ES,Madrid,Madrid,Calle de Mercedes arteaga 15,Madrid'",28019,ES,Madrid,Madrid,Calle de Mercedes arteaga 15,Madrid,Carabanchel,https://wikidata.org/entity/Q1001991
FreePlace361,-3.7195066,40.4090099,"'28005,ES,Madrid,Madrid,Calle de Juan duque 47,Madrid'",28005,ES,Madrid,Madrid,Calle de Juan duque 47,Madrid,Arganzuela,https://wikidata.org/entity/Q2000929
FreePlace362,-3.65133,40.4260266,"'28017,ES,Madrid,Madrid,Avenida del Marqués de corbera 50,Madrid'",28017,ES,Madrid,Madrid,Avenida del Marqués de corbera 50,Madrid,Ciudad Lineal,https://wikidata.org/entity/Q1763694
FreePlace363,-3.6705833,40.4823683,"'28033,ES,Madrid,Madrid,Calle de Caleruega 67,Madrid'",28033,ES,Madrid,Madrid,Calle de Caleruega 67,Madrid,Ciudad Lineal,https://wikidata.org/entity/Q1763694
FreePlace364,-3.7059816,40.428415,"'28015,ES,Madrid,Madrid,Calle de San bernardo 82,Madrid'",28015,ES,Madrid,Madrid,Calle de San bernardo 82,Madrid,Centro,https://wikidata.org/entity/Q1763376
FreePlace365,-3.6743366,40.4008033,"'28007,ES,Madrid,Madrid,Calle del Cerro de la plata 1,Madrid'",28007,ES,Madrid,Madrid,Calle del Cerro de la plata 1,Madrid,Retiro,https://wikidata.org/entity/Q2002296
FreePlace366,-3.6928116,40.44155,"'28003,ES,Madrid,Madrid,Plaza de San juan de la cruz 11,Madrid'",28003,ES,Madrid,Madrid,Plaza de San juan de la cruz 11,Madrid,Chamberí,https://wikidata.org/entity/Q1763370
FreePlace367,-3.6802666,40.4048933,"'28007,ES,Madrid,Madrid,Avenida de Menéndez pelayo 38,Madrid'",28007,ES,Madrid,Madrid,Avenida de Menéndez pelayo 38,Madrid,Retiro,https://wikidata.org/entity/Q2002296
FreePlace368,-3.693795,40.4521949,"'28020,ES,Madrid,Madrid,Avenida de la Vaguada ,Madrid'",28020,ES,Madrid,Madrid,Avenida de la Vaguada,Madrid,Tetuán,https://wikidata.org/entity/Q1773540
FreePlace369,-3.7058983,40.4056766,"'28005,ES,Madrid,Madrid,Ronda de Toledo 20H,Madrid'",28005,ES,Madrid,Madrid,Ronda de Toledo 20H,Madrid,Centro,https://wikidata.org/entity/Q1763376
FreePlace370,-3.7060566,40.428295,"'28015,ES,Madrid,Madrid,Calle de San bernardo 80,Madrid'",28015,ES,Madrid,Madrid,Calle de San bernardo 80,Madrid,Centro,https://wikidata.org/entity/Q1763376
FreePlace371,-3.641605,40.391655,"'28038,ES,Madrid,Madrid,Calle de los Andaluces 2,Madrid'",28038,ES,Madrid,Madrid,Calle de los Andaluces 2,Madrid,Puente de Vallecas,https://wikidata.org/entity/Q2003054
FreePlace372,-3.6987483,40.3862216,"'28026,ES,Madrid,Madrid,Avenida de Córdoba 9A,Madrid'",28026,ES,Madrid,Madrid,Avenida de Córdoba 9A,Madrid,Usera,https://wikidata.org/entity/Q953368
FreePlace373,-3.6730733,40.41805,"'28009,ES,Madrid,Madrid,Calle de Ibiza 46,Madrid'",28009,ES,Madrid,Madrid,Calle de Ibiza 46,Madrid,Retiro,https://wikidata.org/entity/Q2002296
FreePlace374,-3.7248066,40.4143066,"'28011,ES,Madrid,Madrid,Calle de Saavedra fajardo 10,Madrid'",28011,ES,Madrid,Madrid,Calle de Saavedra fajardo 10,Madrid,Latina,https://wikidata.org/entity/Q794954
FreePlace375,-3.70605,40.4284516,"'28015,ES,Madrid,Madrid,Calle de San bernardo 82,Madrid'",28015,ES,Madrid,Madrid,Calle de San bernardo 82,Madrid,Centro,https://wikidata.org/entity/Q1763376
FreePlace376,-3.6290283,40.4805716,"'28055,ES,Madrid,Madrid,Glorieta de Luis cubillo ,Madrid'",28055,ES,Madrid,Madrid,Glorieta de Luis cubillo,Madrid,Hortaleza,https://wikidata.org/entity/Q1928529
FreePlace377,-3.6977683,40.4252033,"'28004,ES,Madrid,Madrid,Calle de Hortaleza 104,Madrid'",28004,ES,Madrid,Madrid,Calle de Hortaleza 104,Madrid,Centro,https://wikidata.org/entity/Q1763376
FreePlace378,-3.7047816,40.4069016,"'28005,ES,Madrid,Madrid,Calle del Casino 8,Madrid'",28005,ES,Madrid,Madrid,Calle del Casino 8,Madrid,Centro,https://wikidata.org/entity/Q1763376
FreePlace379,-3.6977416,40.4251966,"'28004,ES,Madrid,Madrid,Calle de Hortaleza 104,Madrid'",28004,ES,Madrid,Madrid,Calle de Hortaleza 104,Madrid,Centro,https://wikidata.org/entity/Q1763376
FreePlace380,-3.6775766,40.3928966,"'28045,ES,Madrid,Madrid,Calle Titán 4,Madrid'",28045,ES,Madrid,Madrid,Calle Titán 4,Madrid,Arganzuela,https://wikidata.org/entity/Q2000929
FreePlace381,-3.6945099,40.4239333,"'28004,ES,Madrid,Madrid,Plaza de Salesas 8,Madrid'",28004,ES,Madrid,Madrid,Plaza de Salesas 8,Madrid,Centro,https://wikidata.org/entity/Q1763376
FreePlace382,-3.6977166,40.4509233,"'28020,ES,Madrid,Madrid,Calle de la Reina mercedes 18,Madrid'",28020,ES,Madrid,Madrid,Calle de la Reina mercedes 18,Madrid,Tetuán,https://wikidata.org/entity/Q1773540
FreePlace383,-3.6711233,40.4820766,"'28033,ES,Madrid,Madrid,Calle de Caleruega 63,Madrid'",28033,ES,Madrid,Madrid,Calle de Caleruega 63,Madrid,Ciudad Lineal,https://wikidata.org/entity/Q1763694
FreePlace384,-3.67041,40.4051366,"'28007,ES,Madrid,Madrid,Calle de Santa sabina 3,Madrid'",28007,ES,Madrid,Madrid,Calle de Santa sabina 3,Madrid,Retiro,https://wikidata.org/entity/Q2002296
FreePlace385,-3.6876683,40.4268716,"'28001,ES,Madrid,Madrid,Calle de Serrano 44B,Madrid'",28001,ES,Madrid,Madrid,Calle de Serrano 44B,Madrid,Salamanca,https://wikidata.org/entity/Q1773521
FreePlace386,-3.6994349,40.4367666,"'28010,ES,Madrid,Madrid,Calle de Santa engracia 78,Madrid'",28010,ES,Madrid,Madrid,Calle de Santa engracia 78,Madrid,Chamberí,https://wikidata.org/entity/Q1763370
FreePlace387,-3.6701283,40.498655,"'28050,ES,Madrid,Madrid,Calle Quintanadueñas 12,Madrid'",28050,ES,Madrid,Madrid,Calle Quintanadueñas 12,Madrid,Fuencarral-El Pardo,https://wikidata.org/entity/Q656196
FreePlace388,-3.6788383,40.42608,"'28001,ES,Madrid,Madrid,Calle de Hermosilla 70,Madrid'",28001,ES,Madrid,Madrid,Calle de Hermosilla 70,Madrid,Salamanca,https://wikidata.org/entity/Q1773521
FreePlace389,-3.62463,40.43821,"'28037,ES,Madrid,Madrid,Calle Albasánz 64,Madrid'",28037,ES,Madrid,Madrid,Calle Albasánz 64,Madrid,San Blas-Canillejas,https://wikidata.org/entity/Q2001937
FreePlace390,-3.7304333,40.4282116,"'28008,ES,Madrid,Madrid,Calle de Aniceto marinas 98,Madrid'",28008,ES,Madrid,Madrid,Calle de Aniceto marinas 98,Madrid,Moncloa-Aravaca,https://wikidata.org/entity/Q2017682
FreePlace391,-3.7266566,40.4249849,"'28008,ES,Madrid,Madrid,Puente de la Reina victoria ,Madrid'",28008,ES,Madrid,Madrid,Puente de la Reina victoria,Madrid,Moncloa-Aravaca,https://wikidata.org/entity/Q2017682
FreePlace392,-3.6773616,40.449225,"'28002,ES,Madrid,Madrid,Calle del Príncipe de vergara 202,Madrid'",28002,ES,Madrid,Madrid,Calle del Príncipe de vergara 202,Madrid,Chamartín,https://wikidata.org/entity/Q1766348
FreePlace393,-3.6703816,40.4051283,"'28007,ES,Madrid,Madrid,Calle de Santa sabina 3,Madrid'",28007,ES,Madrid,Madrid,Calle de Santa sabina 3,Madrid,Retiro,https://wikidata.org/entity/Q2002296
FreePlace394,-3.6913966,40.4330333,"'28010,ES,Madrid,Madrid,Glorieta Rubén darío 2,Madrid'",28010,ES,Madrid,Madrid,Glorieta Rubén darío 2,Madrid,Chamberí,https://wikidata.org/entity/Q1763370
FreePlace395,-3.7348183,40.4163933,"'28011,ES,Madrid,Madrid,Ronda del Lago 2,Madrid'",28011,ES,Madrid,Madrid,Ronda del Lago 2,Madrid,Moncloa-Aravaca,https://wikidata.org/entity/Q2017682
FreePlace396,-3.6633666,40.48771,"'28050,ES,Madrid,Madrid,Avenida de Manoteras 46D,Madrid'",28050,ES,Madrid,Madrid,Avenida de Manoteras 46D,Madrid,Hortaleza,https://wikidata.org/entity/Q1928529
FreePlace397,-3.687515,40.4267833,"'28001,ES,Madrid,Madrid,Calle de Serrano 44,Madrid'",28001,ES,Madrid,Madrid,Calle de Serrano 44,Madrid,Salamanca,https://wikidata.org/entity/Q1773521
FreePlace398,-3.6953416,40.4277883,"'28004,ES,Madrid,Madrid,Plaza de Alonso martínez 5,Madrid'",28004,ES,Madrid,Madrid,Plaza de Alonso martínez 5,Madrid,Chamberí,https://wikidata.org/entity/Q1763370
FreePlace399,-3.6491916,40.4441566,"'28027,ES,Madrid,Madrid,Calle de Agastia 20,Madrid'",28027,ES,Madrid,Madrid,Calle de Agastia 20,Madrid,Ciudad Lineal,https://wikidata.org/entity/Q1763694
FreePlace400,-3.659095,40.490505,"'28050,ES,Madrid,Madrid,Avenida de Francisco pi y margall 72,Madrid'",28050,ES,Madrid,Madrid,Avenida de Francisco pi y margall 72,Madrid,Hortaleza,https://wikidata.org/entity/Q1928529
FreePlace401,-3.71798,40.4372933,"'28015,ES,Madrid,Madrid,Calle de Isaac peral 22,Madrid'",28015,ES,Madrid,Madrid,Calle de Isaac peral 22,Madrid,Chamberí,https://wikidata.org/entity/Q1763370
FreePlace402,-3.698415,40.4608716,"'28020,ES,Madrid,Madrid,Calle de Bravo murillo 291,Madrid'",28020,ES,Madrid,Madrid,Calle de Bravo murillo 291,Madrid,Tetuán,https://wikidata.org/entity/Q1773540
FreePlace403,-3.6629816,40.4882583,"'28050,ES,Madrid,Madrid,Calle de Oña 63B,Madrid'",28050,ES,Madrid,Madrid,Calle de Oña 63B,Madrid,Hortaleza,https://wikidata.org/entity/Q1928529
FreePlace404,-3.69561,40.4276216,"'28004,ES,Madrid,Madrid,Plaza de Alonso martínez 7,Madrid'",28004,ES,Madrid,Madrid,Plaza de Alonso martínez 7,Madrid,Chamberí,https://wikidata.org/entity/Q1763370
FreePlace405,-3.7348283,40.406685,"'28011,ES,Madrid,Madrid,Calle de Santa aurea 13,Madrid'",28011,ES,Madrid,Madrid,Calle de Santa aurea 13,Madrid,Latina,https://wikidata.org/entity/Q794954
FreePlace406,-3.6863933,40.4009983,"'28045,ES,Madrid,Madrid,Calle de Méndez álvaro 32,Madrid'",28045,ES,Madrid,Madrid,Calle de Méndez álvaro 32,Madrid,Arganzuela,https://wikidata.org/entity/Q2000929
FreePlace407,-3.7106183,40.4237183,"'28015,ES,Madrid,Madrid,Calle de los Reyes 18,Madrid'",28015,ES,Madrid,Madrid,Calle de los Reyes 18,Madrid,Centro,https://wikidata.org/entity/Q1763376
FreePlace408,-3.702235,40.42424,"'28004,ES,Madrid,Madrid,Plaza de San ildefonso 5,Madrid'",28004,ES,Madrid,Madrid,Plaza de San ildefonso 5,Madrid,Centro,https://wikidata.org/entity/Q1763376
FreePlace409,-3.6510516,40.3820099,"'28018,ES,Madrid,Madrid,Avenida de Pablo neruda 114H,Madrid'",28018,ES,Madrid,Madrid,Avenida de Pablo neruda 114H,Madrid,Puente de Vallecas,https://wikidata.org/entity/Q2003054
FreePlace410,-3.686565,40.401685,"'28045,ES,Madrid,Madrid,Calle de Méndez álvaro 7,Madrid'",28045,ES,Madrid,Madrid,Calle de Méndez álvaro 7,Madrid,Arganzuela,https://wikidata.org/entity/Q2000929
FreePlace411,-3.710075,40.4237716,"'28015,ES,Madrid,Madrid,Calle de San ignacio de loyola 18,Madrid'",28015,ES,Madrid,Madrid,Calle de San ignacio de loyola 18,Madrid,Centro,https://wikidata.org/entity/Q1763376
FreePlace412,-3.7156566,40.3970916,"'28019,ES,Madrid,Madrid,Glorieta Marqués de vadillo 3,Madrid'",28019,ES,Madrid,Madrid,Glorieta Marqués de vadillo 3,Madrid,Carabanchel,https://wikidata.org/entity/Q1001991
FreePlace413,-3.6850616,40.4793633,"'28046,ES,Madrid,Madrid,Paseo de la Castellana 298,Madrid'",28046,ES,Madrid,Madrid,Paseo de la Castellana 298,Madrid,Chamartín,https://wikidata.org/entity/Q1766348
FreePlace414,-3.6588016,40.4916666,"'28050,ES,Madrid,Madrid,Calle de la Princesa de éboli 3B,Madrid'",28050,ES,Madrid,Madrid,Calle de la Princesa de éboli 3B,Madrid,Hortaleza,https://wikidata.org/entity/Q1928529
FreePlace415,-3.7120983,40.414,"'28005,ES,Madrid,Madrid,Calle de Segovia 18,Madrid'",28005,ES,Madrid,Madrid,Calle de Segovia 18,Madrid,Centro,https://wikidata.org/entity/Q1763376
FreePlace416,-3.6786249,40.4030466,"'28007,ES,Madrid,Madrid,Calle de León gil de palacio 1,Madrid'",28007,ES,Madrid,Madrid,Calle de León gil de palacio 1,Madrid,Retiro,https://wikidata.org/entity/Q2002296
FreePlace417,-3.63738,40.41159,"'28030,ES,Madrid,Madrid,Calle de José bergamín 34,Madrid'",28030,ES,Madrid,Madrid,Calle de José bergamín 34,Madrid,Moratalaz,https://wikidata.org/entity/Q2076109
FreePlace418,-3.7288383,40.4089333,"'28011,ES,Madrid,Madrid,Calle de Calatayud 8,Madrid'",28011,ES,Madrid,Madrid,Calle de Calatayud 8,Madrid,Latina,https://wikidata.org/entity/Q794954
FreePlace419,-3.6354066,40.4023633,"'28030,ES,Madrid,Madrid,Calle de la Fuente carantona 14,Madrid'",28030,ES,Madrid,Madrid,Calle de la Fuente carantona 14,Madrid,Moratalaz,https://wikidata.org/entity/Q2076109
FreePlace420,-3.7007966,40.45754,"'28020,ES,Madrid,Madrid,Calle de San germán 72,Madrid'",28020,ES,Madrid,Madrid,Calle de San germán 72,Madrid,Tetuán,https://wikidata.org/entity/Q1773540
FreePlace421,-3.6823133,40.4766216,"'28046,ES,Madrid,Madrid,Calle de Mauricio legendre 38D,Madrid'",28046,ES,Madrid,Madrid,Calle de Mauricio legendre 38D,Madrid,Chamartín,https://wikidata.org/entity/Q1766348
FreePlace422,-3.7222783,40.421545,"'28008,ES,Madrid,Madrid,Calle de Aniceto marinas 18,Madrid'",28008,ES,Madrid,Madrid,Calle de Aniceto marinas 18,Madrid,Moncloa-Aravaca,https://wikidata.org/entity/Q2017682
FreePlace423,-3.6583683,40.4137816,"'28030,ES,Madrid,Madrid,Avenida del Doctor garcía tapia 21,Madrid'",28030,ES,Madrid,Madrid,Avenida del Doctor garcía tapia 21,Madrid,Moratalaz,https://wikidata.org/entity/Q2076109
FreePlace424,-3.65113,40.42619,"'28017,ES,Madrid,Madrid,Avenida del Marqués de corbera 54,Madrid'",28017,ES,Madrid,Madrid,Avenida del Marqués de corbera 54,Madrid,Ciudad Lineal,https://wikidata.org/entity/Q1763694
FreePlace425,-3.6933066,40.41859,"'28014,ES,Madrid,Madrid,Paseo del Prado 1,Madrid'",28014,ES,Madrid,Madrid,Paseo del Prado 1,Madrid,Retiro,https://wikidata.org/entity/Q2002296
FreePlace426,-3.6932383,40.4186099,"'28014,ES,Madrid,Madrid,Paseo del Prado 1,Madrid'",28014,ES,Madrid,Madrid,Paseo del Prado 1,Madrid,Retiro,https://wikidata.org/entity/Q2002296
FreePlace427,-3.7008933,40.4575066,"'28020,ES,Madrid,Madrid,Calle de San germán 74,Madrid'",28020,ES,Madrid,Madrid,Calle de San germán 74,Madrid,Tetuán,https://wikidata.org/entity/Q1773540
FreePlace428,-3.6820516,40.476905,"'28046,ES,Madrid,Madrid,Calle de Mauricio legendre 38D,Madrid'",28046,ES,Madrid,Madrid,Calle de Mauricio legendre 38D,Madrid,Chamartín,https://wikidata.org/entity/Q1766348
FreePlace429,-3.6823033,40.4766133,"'28046,ES,Madrid,Madrid,Calle de Mauricio legendre 38D,Madrid'",28046,ES,Madrid,Madrid,Calle de Mauricio legendre 38D,Madrid,Chamartín,https://wikidata.org/entity/Q1766348
FreePlace430,-3.6820933,40.4769333,"'28046,ES,Madrid,Madrid,Calle de Mauricio legendre 38D,Madrid'",28046,ES,Madrid,Madrid,Calle de Mauricio legendre 38D,Madrid,Chamartín,https://wikidata.org/entity/Q1766348
FreePlace431,-3.68216,40.47669,"'28046,ES,Madrid,Madrid,Calle de Mauricio legendre 38D,Madrid'",28046,ES,Madrid,Madrid,Calle de Mauricio legendre 38D,Madrid,Chamartín,https://wikidata.org/entity/Q1766348
FreePlace432,-3.6783433,40.4183383,"'28009,ES,Madrid,Madrid,Calle de Ibiza 2,Madrid'",28009,ES,Madrid,Madrid,Calle de Ibiza 2,Madrid,Retiro,https://wikidata.org/entity/Q2002296
FreePlace433,-3.682095,40.47686,"'28046,ES,Madrid,Madrid,Calle de Mauricio legendre 38D,Madrid'",28046,ES,Madrid,Madrid,Calle de Mauricio legendre 38D,Madrid,Chamartín,https://wikidata.org/entity/Q1766348
FreePlace434,-3.682625,40.5016966,"'28034,ES,Madrid,Madrid,Calle de Antonio de cabezón 87,Madrid'",28034,ES,Madrid,Madrid,Calle de Antonio de cabezón 87,Madrid,Fuencarral-El Pardo,https://wikidata.org/entity/Q656196
FreePlace435,-3.6252066,40.4379266,"'28037,ES,Madrid,Madrid,Calle Albasánz 45,Madrid'",28037,ES,Madrid,Madrid,Calle Albasánz 45,Madrid,San Blas-Canillejas,https://wikidata.org/entity/Q2001937
FreePlace436,-3.6722516,40.4213616,"'28009,ES,Madrid,Madrid, Tunel de o'donnell ,Madrid'",28009,ES,Madrid,Madrid,Tunel de odonnell,Madrid,Retiro,https://wikidata.org/entity/Q2002296
FreePlace437,-3.727435,40.4267316,"'28008,ES,Madrid,Madrid,Avenida de Valladolid 17,Madrid'",28008,ES,Madrid,Madrid,Avenida de Valladolid 17,Madrid,Moncloa-Aravaca,https://wikidata.org/entity/Q2017682
FreePlace438,-3.6700283,40.5112766,"'28050,ES,Madrid,Madrid,Paseo de Tierra melide 38A,Madrid'",28050,ES,Madrid,Madrid,Paseo de Tierra melide 38A,Madrid,Fuencarral-El Pardo,https://wikidata.org/entity/Q656196
FreePlace439,-3.66039,40.4620933,"'28033,ES,Madrid,Madrid,Calle Emilio rubín 11,Madrid'",28033,ES,Madrid,Madrid,Calle Emilio rubín 11,Madrid,Ciudad Lineal,https://wikidata.org/entity/Q1763694
FreePlace440,-3.7152983,40.3988449,"'28019,ES,Madrid,Madrid,Nudo de Puente de toledo ,Madrid'",28019,ES,Madrid,Madrid,Nudo de Puente de toledo,Madrid,Carabanchel,https://wikidata.org/entity/Q1001991
FreePlace441,-3.68635,40.4009549,"'28045,ES,Madrid,Madrid,Calle de Méndez álvaro 32B,Madrid'",28045,ES,Madrid,Madrid,Calle de Méndez álvaro 32B,Madrid,Arganzuela,https://wikidata.org/entity/Q2000929
FreePlace442,-3.6592116,40.4906066,"'28050,ES,Madrid,Madrid,Avenida de Francisco pi y margall 72,Madrid'",28050,ES,Madrid,Madrid,Avenida de Francisco pi y margall 72,Madrid,Hortaleza,https://wikidata.org/entity/Q1928529
FreePlace443,-3.7328,40.4324583,"'28008,ES,Madrid,Madrid,Avenida de Valladolid 77,Madrid'",28008,ES,Madrid,Madrid,Avenida de Valladolid 77,Madrid,Moncloa-Aravaca,https://wikidata.org/entity/Q2017682
FreePlace444,-3.707705,40.4295933,"'28015,ES,Madrid,Madrid,Calle del Acuerdo 38,Madrid'",28015,ES,Madrid,Madrid,Calle del Acuerdo 38,Madrid,Centro,https://wikidata.org/entity/Q1763376
FreePlace445,-3.7222783,40.4222466,"'28008,ES,Madrid,Madrid,Paseo de la Florida 25,Madrid'",28008,ES,Madrid,Madrid,Paseo de la Florida 25,Madrid,Moncloa-Aravaca,https://wikidata.org/entity/Q2017682
FreePlace446,-3.708125,40.3943616,"'28019,ES,Madrid,Madrid,Calle San delfín 9,Madrid'",28019,ES,Madrid,Madrid,Calle San delfín 9,Madrid,Carabanchel,https://wikidata.org/entity/Q1001991
FreePlace447,-3.7131733,40.393805,"'28019,ES,Madrid,Madrid,Calle de Baleares 33,Madrid'",28019,ES,Madrid,Madrid,Calle de Baleares 33,Madrid,Carabanchel,https://wikidata.org/entity/Q1001991
FreePlace448,-3.7313649,40.3950916,"'28019,ES,Madrid,Madrid,Calle de Ervigio 32,Madrid'",28019,ES,Madrid,Madrid,Calle de Ervigio 32,Madrid,Carabanchel,https://wikidata.org/entity/Q1001991
FreePlace449,-3.6952366,40.447915,"'28020,ES,Madrid,Madrid,Calle de Orense 6,Madrid'",28020,ES,Madrid,Madrid,Calle de Orense 6,Madrid,Tetuán,https://wikidata.org/entity/Q1773540
FreePlace450,-3.697565,40.4416433,"'28003,ES,Madrid,Madrid,Calle de Alonso cano 71,Madrid'",28003,ES,Madrid,Madrid,Calle de Alonso cano 71,Madrid,Chamberí,https://wikidata.org/entity/Q1763370
FreePlace451,-3.705395,40.4361633,"'28015,ES,Madrid,Madrid,Calle Donoso cortés 7,Madrid'",28015,ES,Madrid,Madrid,Calle Donoso cortés 7,Madrid,Chamberí,https://wikidata.org/entity/Q1763370
FreePlace452,-3.7334116,40.4285733,"'28008,ES,Madrid,Madrid,Paseo del Comandante fortea 56,Madrid'",28008,ES,Madrid,Madrid,Paseo del Comandante fortea 56,Madrid,Moncloa-Aravaca,https://wikidata.org/entity/Q2017682
FreePlace453,-3.6690633,40.3981583,"'28038,ES,Madrid,Madrid,Avenida de la Albufera 1,Madrid'",28038,ES,Madrid,Madrid,Avenida de la Albufera 1,Madrid,Puente de Vallecas,https://wikidata.org/entity/Q2003054
FreePlace454,-3.6625483,40.48878,"'28050,ES,Madrid,Madrid,Calle de Oña 103,Madrid'",28050,ES,Madrid,Madrid,Calle de Oña 103,Madrid,Hortaleza,https://wikidata.org/entity/Q1928529
FreePlace455,-3.7060316,40.42841,"'28015,ES,Madrid,Madrid,Calle de San bernardo 82,Madrid'",28015,ES,Madrid,Madrid,Calle de San bernardo 82,Madrid,Centro,https://wikidata.org/entity/Q1763376
FreePlace456,-3.7175583,40.4642349,"'28039,ES,Madrid,Madrid,Calle de Artajona 14,Madrid'",28039,ES,Madrid,Madrid,Calle de Artajona 14,Madrid,Moncloa-Aravaca,https://wikidata.org/entity/Q2017682
FreePlace457,-3.6960049,40.3833966,"'28026,ES,Madrid,Madrid,Calle de Antonio lópez 238,Madrid'",28026,ES,Madrid,Madrid,Calle de Antonio lópez 238,Madrid,Usera,https://wikidata.org/entity/Q953368
FreePlace458,-3.7060233,40.4284166,"'28015,ES,Madrid,Madrid,Calle de San bernardo 82,Madrid'",28015,ES,Madrid,Madrid,Calle de San bernardo 82,Madrid,Centro,https://wikidata.org/entity/Q1763376
FreePlace459,-3.6565383,40.4142433,"'28030,ES,Madrid,Madrid,Calle del Alcalde garrido juaristi 6,Madrid'",28030,ES,Madrid,Madrid,Calle del Alcalde garrido juaristi 6,Madrid,Moratalaz,https://wikidata.org/entity/Q2076109
FreePlace460,-3.6934016,40.4187066,"'28014,ES,Madrid,Madrid,Paseo del Prado 1,Madrid'",28014,ES,Madrid,Madrid,Paseo del Prado 1,Madrid,Retiro,https://wikidata.org/entity/Q2002296
FreePlace461,-3.67492,40.444115,"'28002,ES,Madrid,Madrid,Plaza de la Prosperidad 2,Madrid'",28002,ES,Madrid,Madrid,Plaza de la Prosperidad 2,Madrid,Chamartín,https://wikidata.org/entity/Q1766348
FreePlace462,-3.6580533,40.4476133,"'28043,ES,Madrid,Madrid,Calle de Treviana 1A,Madrid'",28043,ES,Madrid,Madrid,Calle de Treviana 1A,Madrid,Ciudad Lineal,https://wikidata.org/entity/Q1763694
FreePlace463,-3.6391083,40.4465083,"'28027,ES,Madrid,Madrid,Calle de Corumba 30,Madrid'",28027,ES,Madrid,Madrid,Calle de Corumba 30,Madrid,San Blas-Canillejas,https://wikidata.org/entity/Q2001937
FreePlace464,-3.7163483,40.3978066,"'28019,ES,Madrid,Madrid,Glorieta Marqués de vadillo 8,Madrid'",28019,ES,Madrid,Madrid,Glorieta Marqués de vadillo 8,Madrid,Carabanchel,https://wikidata.org/entity/Q1001991
FreePlace465,-3.7171966,40.4075333,"'28005,ES,Madrid,Madrid,Paseo Imperial 31,Madrid'",28005,ES,Madrid,Madrid,Paseo Imperial 31,Madrid,Arganzuela,https://wikidata.org/entity/Q2000929
FreePlace466,-3.67894,40.4030783,"'28007,ES,Madrid,Madrid,Calle de León gil de palacio 1,Madrid'",28007,ES,Madrid,Madrid,Calle de León gil de palacio 1,Madrid,Retiro,https://wikidata.org/entity/Q2002296
FreePlace467,-3.6525166,40.4200883,"'28017,ES,Madrid,Madrid,Calle de Santa irene 3,Madrid'",28017,ES,Madrid,Madrid,Calle de Santa irene 3,Madrid,Ciudad Lineal,https://wikidata.org/entity/Q1763694
FreePlace468,-3.7081466,40.4411533,"'28003,ES,Madrid,Madrid,Avenida de Filipinas 34,Madrid'",28003,ES,Madrid,Madrid,Avenida de Filipinas 34,Madrid,Chamberí,https://wikidata.org/entity/Q1763370
FreePlace469,-3.7203683,40.3898333,"'28019,ES,Madrid,Madrid,Calle de Alejandro sánchez 63,Madrid'",28019,ES,Madrid,Madrid,Calle de Alejandro sánchez 63,Madrid,Carabanchel,https://wikidata.org/entity/Q1001991
FreePlace470,-3.66753,40.40622,"'28007,ES,Madrid,Madrid,Avenida del Mediterráneo 54,Madrid'",28007,ES,Madrid,Madrid,Avenida del Mediterráneo 54,Madrid,Retiro,https://wikidata.org/entity/Q2002296
FreePlace471,-3.6203466,40.4178366,"'28032,ES,Madrid,Madrid,Calle de Aquitania 7,Madrid'",28032,ES,Madrid,Madrid,Calle de Aquitania 7,Madrid,San Blas-Canillejas,https://wikidata.org/entity/Q2001937
FreePlace472,-3.7205083,40.4047166,"'28005,ES,Madrid,Madrid,Paseo de los Melancólicos 43,Madrid'",28005,ES,Madrid,Madrid,Paseo de los Melancólicos 43,Madrid,Arganzuela,https://wikidata.org/entity/Q2000929
FreePlace473,-3.6662483,40.39413,"'28053,ES,Madrid,Madrid,Calle de Martínez de la riva 16,Madrid'",28053,ES,Madrid,Madrid,Calle de Martínez de la riva 16,Madrid,Puente de Vallecas,https://wikidata.org/entity/Q2003054
FreePlace474,-3.69028,40.40739,"'28007,ES,Madrid,Madrid,Plaza del Embarcadero de atocha ,Madrid'",28007,ES,Madrid,Madrid,Plaza del Embarcadero de atocha,Madrid,Arganzuela,https://wikidata.org/entity/Q2000929
FreePlace475,-3.731685,40.4280933,"'28008,ES,Madrid,Madrid,Calle de la Ribera del manzanares 115,Madrid'",28008,ES,Madrid,Madrid,Calle de la Ribera del manzanares 115,Madrid,Moncloa-Aravaca,https://wikidata.org/entity/Q2017682
FreePlace476,-3.6876983,40.4240466,"'28001,ES,Madrid,Madrid,Calle de Jorge juan 3,Madrid'",28001,ES,Madrid,Madrid,Calle de Jorge juan 3,Madrid,Salamanca,https://wikidata.org/entity/Q1773521
FreePlace477,-3.659625,40.4905533,"'28050,ES,Madrid,Madrid,Avenida de Francisco pi y margall 77,Madrid'",28050,ES,Madrid,Madrid,Avenida de Francisco pi y margall 77,Madrid,Hortaleza,https://wikidata.org/entity/Q1928529
FreePlace478,-3.6842616,40.4720883,"'28046,ES,Madrid,Madrid,Calle de Mauricio ravel 10,Madrid'",28046,ES,Madrid,Madrid,Calle de Mauricio ravel 10,Madrid,Chamartín,https://wikidata.org/entity/Q1766348
FreePlace479,-3.72006,40.3907333,"'28019,ES,Madrid,Madrid,Calle de Belmonte de tajo 60,Madrid'",28019,ES,Madrid,Madrid,Calle de Belmonte de tajo 60,Madrid,Carabanchel,https://wikidata.org/entity/Q1001991
FreePlace480,-3.7009216,40.411595,"'28012,ES,Madrid,Madrid,Calle del Olmo 10,Madrid'",28012,ES,Madrid,Madrid,Calle del Olmo 10,Madrid,Centro,https://wikidata.org/entity/Q1763376
FreePlace481,-3.739135,40.4098383,"'28011,ES,Madrid,Madrid,Paseo de Extremadura 158,Madrid'",28011,ES,Madrid,Madrid,Paseo de Extremadura 158,Madrid,Latina,https://wikidata.org/entity/Q794954
FreePlace482,-3.7073716,40.4262533,"'28015,ES,Madrid,Madrid,Calle del Norte 13,Madrid'",28015,ES,Madrid,Madrid,Calle del Norte 13,Madrid,Centro,https://wikidata.org/entity/Q1763376
FreePlace483,-3.71322,40.4139083,"'28013,ES,Madrid,Madrid,Calle de Segovia 21,Madrid'",28013,ES,Madrid,Madrid,Calle de Segovia 21,Madrid,Centro,https://wikidata.org/entity/Q1763376
FreePlace484,-3.6979683,40.4709933,"'28029,ES,Madrid,Madrid,Avenida de Asturias 55,Madrid'",28029,ES,Madrid,Madrid,Avenida de Asturias 55,Madrid,Tetuán,https://wikidata.org/entity/Q1773540
FreePlace485,-3.6934816,40.4155433,"'28014,ES,Madrid,Madrid,Plaza de Cánovas del castillo 2,Madrid'",28014,ES,Madrid,Madrid,Plaza de Cánovas del castillo 2,Madrid,Retiro,https://wikidata.org/entity/Q2002296
FreePlace486,-3.70166,40.4118533,"'28012,ES,Madrid,Madrid,Calle del Olivar 3,Madrid'",28012,ES,Madrid,Madrid,Calle del Olivar 3,Madrid,Centro,https://wikidata.org/entity/Q1763376
FreePlace487,-3.6819716,40.4220516,"'28001,ES,Madrid,Madrid,Calle de Villanueva 43,Madrid'",28001,ES,Madrid,Madrid,Calle de Villanueva 43,Madrid,Salamanca,https://wikidata.org/entity/Q1773521
FreePlace488,-3.683355,40.4733933,"'28036,ES,Madrid,Madrid,Calle Malva ,Madrid'",28036,ES,Madrid,Madrid,Calle Malva,Madrid,Chamartín,https://wikidata.org/entity/Q1766348
FreePlace489,-3.7043766,40.4098633,"'28012,ES,Madrid,Madrid,Calle del Oso 1,Madrid'",28012,ES,Madrid,Madrid,Calle del Oso 1,Madrid,Centro,https://wikidata.org/entity/Q1763376
FreePlace490,-3.6380016,40.4087783,"'28030,ES,Madrid,Madrid,Calle de Molina de segura 2,Madrid'",28030,ES,Madrid,Madrid,Calle de Molina de segura 2,Madrid,Moratalaz,https://wikidata.org/entity/Q2076109
FreePlace491,-3.6951416,40.418965,"'28014,ES,Madrid,Madrid,Calle de Alcalá 49,Madrid'",28014,ES,Madrid,Madrid,Calle de Alcalá 49,Madrid,Centro,https://wikidata.org/entity/Q1763376
FreePlace492,-3.6497,40.4641966,"'28043,ES,Madrid,Madrid,Calle de Agustín calvo 20,Madrid'",28043,ES,Madrid,Madrid,Calle de Agustín calvo 20,Madrid,Hortaleza,https://wikidata.org/entity/Q1928529
FreePlace493,-3.6864733,40.4304783,"'28006,ES,Madrid,Madrid,Calle de José ortega y gasset 9,Madrid'",28006,ES,Madrid,Madrid,Calle de José ortega y gasset 9,Madrid,Salamanca,https://wikidata.org/entity/Q1773521
FreePlace494,-3.6820416,40.4768933,"'28046,ES,Madrid,Madrid,Calle de Mauricio legendre 38D,Madrid'",28046,ES,Madrid,Madrid,Calle de Mauricio legendre 38D,Madrid,Chamartín,https://wikidata.org/entity/Q1766348
FreePlace495,-3.6820983,40.4769333,"'28046,ES,Madrid,Madrid,Calle de Mauricio legendre 38D,Madrid'",28046,ES,Madrid,Madrid,Calle de Mauricio legendre 38D,Madrid,Chamartín,https://wikidata.org/entity/Q1766348
FreePlace496,-3.6823766,40.4765633,"'28046,ES,Madrid,Madrid,Calle de Mauricio legendre 38D,Madrid'",28046,ES,Madrid,Madrid,Calle de Mauricio legendre 38D,Madrid,Chamartín,https://wikidata.org/entity/Q1766348
FreePlace497,-3.7020816,40.4249566,"'28004,ES,Madrid,Madrid,Calle del Espíritu santo 1,Madrid'",28004,ES,Madrid,Madrid,Calle del Espíritu santo 1,Madrid,Centro,https://wikidata.org/entity/Q1763376
FreePlace498,-3.682305,40.4765683,"'28046,ES,Madrid,Madrid,Calle de Mauricio legendre 38D,Madrid'",28046,ES,Madrid,Madrid,Calle de Mauricio legendre 38D,Madrid,Chamartín,https://wikidata.org/entity/Q1766348
FreePlace499,-3.6824116,40.4760866,"'28046,ES,Madrid,Madrid,Calle de Alaterno 4,Madrid'",28046,ES,Madrid,Madrid,Calle de Alaterno 4,Madrid,Chamartín,https://wikidata.org/entity/Q1766348
FreePlace500,-3.720095,40.3899666,"'28019,ES,Madrid,Madrid,Calle de Belmonte de tajo 76,Madrid'",28019,ES,Madrid,Madrid,Calle de Belmonte de tajo 76,Madrid,Carabanchel,https://wikidata.org/entity/Q1001991
FreePlace501,-3.6839416,40.4718666,"'28036,ES,Madrid,Madrid,Calle de Agustín de foxá 40,Madrid'",28036,ES,Madrid,Madrid,Calle de Agustín de foxá 40,Madrid,Chamartín,https://wikidata.org/entity/Q1766348
FreePlace502,-3.71819,40.4104516,"'28005,ES,Madrid,Madrid,Paseo Imperial 2,Madrid'",28005,ES,Madrid,Madrid,Paseo Imperial 2,Madrid,Arganzuela,https://wikidata.org/entity/Q2000929
FreePlace503,-3.7206833,40.4050633,"'28005,ES,Madrid,Madrid,Paseo de los Melancólicos 18,Madrid'",28005,ES,Madrid,Madrid,Paseo de los Melancólicos 18,Madrid,Arganzuela,https://wikidata.org/entity/Q2000929
FreePlace504,-3.6884899,40.5127966,"'28049,ES,Madrid,Madrid,Calle de Conventín de valdediós 4,Madrid'",28049,ES,Madrid,Madrid,Calle de Conventín de valdediós 4,Madrid,Fuencarral-El Pardo,https://wikidata.org/entity/Q656196
