id_free_place,latitude,longitude,address
F1,-3.6703816,40.4626466,"'28016,ES,Madrid,Madrid,Calle de Santa maría magdalena 16,Madrid'"
F2,-3.6698983,40.4822616,"'28033,ES,Madrid,Madrid,Calle de Caleruega 68,Madrid'"
F3,-3.682395,40.47662,"'28046,ES,Madrid,Madrid,Calle de Mauricio legendre 38D,Madrid'"
F4,0.0,0.0,"'28909,ES,Madrid,Madrid,Camino de los Salmedina ,Madrid'"
F5,-3.6822,40.4769666,"'28046,ES,Madrid,Madrid,Calle de Mauricio legendre 38D,Madrid'"
F6,-3.6823683,40.4768849,"'28046,ES,Madrid,Madrid,Calle de Mauricio legendre 38D,Madrid'"
F7,-3.6904133,40.4074666,"'28007,ES,Madrid,Madrid,Plaza del Embarcadero de atocha ,Madrid'"
F8,-3.6958516,40.416165,"'28014,ES,Madrid,Madrid,Calle del Marqués de cubas 18,Madrid'"
F9,-3.6880866,40.4247483,"'28001,ES,Madrid,Madrid,Calle de Serrano ,Madrid'"
F10,-3.6824833,40.4766716,"'28046,ES,Madrid,Madrid,Calle de Mauricio legendre 38D,Madrid'"
F11,-3.7042166,40.3921583,"'28026,ES,Madrid,Madrid,Calle de Antonio lópez 118,Madrid'"
F12,-3.682355,40.4766399,"'28046,ES,Madrid,Madrid,Calle de Mauricio legendre 38D,Madrid'"
F13,-3.6660449,40.492315,"'28050,ES,Madrid,Madrid,Calle de Ana de austria 4,Madrid'"
F14,-3.6681799,40.4884966,"'28050,ES,Madrid,Madrid,Calle de Oña 7,Madrid'"
F15,-3.660185,40.4100833,"'28030,ES,Madrid,Madrid,Calle del Camino de los vinateros 12,Madrid'"
F16,-3.659145,40.4127333,"'28030,ES,Madrid,Madrid,Calle de Manuel machado 16B,Madrid'"
F17,-3.7105616,40.4498883,"'28039,ES,Madrid,Madrid,Avenida de Pablo iglesias 47,Madrid'"
F18,-3.670535,40.4820466,"'28033,ES,Madrid,Madrid,Calle de Caleruega 60,Madrid'"
F19,-3.7803333,40.3808783,"'28044,ES,Madrid,Madrid,Avenida de las Águilas 147,Madrid'"
F20,-3.682555,40.4768933,"'28046,ES,Madrid,Madrid,Calle de Mauricio legendre 38D,Madrid'"
F21,-3.61634,40.4979366,"'28055,ES,Madrid,Madrid,Calle de Luis moya blanco 78,Madrid'"
F22,-3.6823583,40.4770216,"'28046,ES,Madrid,Madrid,Calle de Mauricio legendre 38D,Madrid'"
F23,-3.6682383,40.459755,"'28016,ES,Madrid,Madrid,Jardín de Miguel ángel blanco ,Madrid'"
F24,-3.6569983,40.42917,"'28017,ES,Madrid,Madrid,Calle de Ignacio ellacuria 6,Madrid'"
F25,-3.6866899,40.4168483,"'28009,ES,Madrid,Madrid,Paseo de Argentina 2,Madrid'"
F26,-3.6714883,40.4668,"'28016,ES,Madrid,Madrid,Calle del Cardenal marcelo spínola 4,Madrid'"
F27,-3.7178216,40.4342216,"'28015,ES,Madrid,Madrid,Calle de Fernando el católico 88,Madrid'"
F28,-3.7059933,40.4149033,"'28012,ES,Madrid,Madrid,Plaza de la Provincia 7,Madrid'"
F29,-3.6828233,40.5019933,"'28034,ES,Madrid,Madrid,Calle de Antonio de cabezón 89,Madrid'"
F30,-3.65793,40.4072399,"'28030,ES,Madrid,Madrid,Plaza del Corregidor alonso de aguilar 6,Madrid'"
F31,-3.7566566,40.395805,"'28047,ES,Madrid,Madrid,Calle de Camarena 10,Madrid'"
F32,-3.7113033,40.4071716,"'28005,ES,Madrid,Madrid,Glorieta de la Puerta de toledo 1,Madrid'"
F33,-3.694605,40.42374,"'28004,ES,Madrid,Madrid,Plaza de Salesas 8,Madrid'"
F34,-3.6848816,40.44624,"'28002,ES,Madrid,Madrid,Calle de Serrano 162,Madrid'"
F35,-3.695605,40.4129583,"'28014,ES,Madrid,Madrid,Calle de Jesús 10,Madrid'"
F36,-3.6824466,40.4767466,"'28046,ES,Madrid,Madrid,Calle de Mauricio legendre 38D,Madrid'"
F37,-3.6819966,40.4769483,"'28046,ES,Madrid,Madrid,Calle de Mauricio legendre 38D,Madrid'"
F38,-3.6297483,40.4290699,"'28037,ES,Madrid,Madrid,Calle de Mieres 13,Madrid'"
F39,-3.6578216,40.41057,"'28030,ES,Madrid,Madrid,Calle del Camino de los vinateros 5,Madrid'"
F40,-3.7177116,40.4137383,"'28005,ES,Madrid,Madrid,Calle de Segovia 47B,Madrid'"
F41,-3.6997366,40.4207666,"'28004,ES,Madrid,Madrid,Calle de las Infantas 18,Madrid'"
F42,-3.7037166,40.420195,"'28013,ES,Madrid,Madrid,Calle Gran vía 31,Madrid'"
F43,-3.682055,40.4769466,"'28046,ES,Madrid,Madrid,Calle de Mauricio legendre 38D,Madrid'"
F44,-3.7017816,40.4241533,"'28004,ES,Madrid,Madrid,Plaza de San ildefonso 7,Madrid'"
F45,-3.7091116,40.4236233,"'28015,ES,Madrid,Madrid,Calle del Álamo 2,Madrid'"
F46,-3.6510649,40.3820916,"'28018,ES,Madrid,Madrid,Avenida de Pablo neruda 114H,Madrid'"
F47,-3.7028116,40.4285266,"'28004,ES,Madrid,Madrid,Calle de Manuela malasaña 5,Madrid'"
F48,-3.67835,40.4290183,"'28001,ES,Madrid,Madrid,Calle del General pardiñas 39,Madrid'"
F49,-3.6818533,40.4767766,"'28046,ES,Madrid,Madrid,Calle de Mauricio legendre 38D,Madrid'"
F50,-3.6184816,40.4406366,"'28037,ES,Madrid,Madrid,Calle Cronos 24,Madrid'"
F51,-3.69978,40.4190883,"'28013,ES,Madrid,Madrid,Calle de la Virgen de los peligros 14,Madrid'"
F52,-3.68239,40.4769466,"'28046,ES,Madrid,Madrid,Calle de Mauricio legendre 38D,Madrid'"
F53,-3.67529,40.4323733,"'28006,ES,Madrid,Madrid,Calle de Juan bravo 53,Madrid'"
F54,-3.697835,40.4025266,"'28045,ES,Madrid,Madrid,Paseo de Santa maría de la cabeza 50,Madrid'"
F55,-3.6823983,40.47675,"'28046,ES,Madrid,Madrid,Calle de Mauricio legendre 38D,Madrid'"
F56,-3.68217,40.4768483,"'28046,ES,Madrid,Madrid,Calle de Mauricio legendre 38D,Madrid'"
F57,-3.7138383,40.4016133,"'28005,ES,Madrid,Madrid,Calle de Toledo 181,Madrid'"
F58,-3.69535,40.38037,"'28041,ES,Madrid,Madrid,Calle de Antonio lópez 237,Madrid'"
F59,-3.6885983,40.399405,"'28045,ES,Madrid,Madrid,Calle de Ramírez de prado 4,Madrid'"
F60,-3.616565,40.4983733,"'28055,ES,Madrid,Madrid,Calle José maría aguirre gonzalo ,Madrid'"
F61,-3.6823216,40.4768516,"'28046,ES,Madrid,Madrid,Calle de Mauricio legendre 38D,Madrid'"
F62,-3.6821733,40.4769666,"'28046,ES,Madrid,Madrid,Calle de Mauricio legendre 38D,Madrid'"
F63,-3.7006283,40.4115849,"'28012,ES,Madrid,Madrid,Calle del Olmo 21B,Madrid'"
F64,-3.6467816,40.408405,"'28030,ES,Madrid,Madrid,Calle del Camino de los vinateros 108,Madrid'"
F65,-3.71781,40.4385699,"'28015,ES,Madrid,Madrid,Calle de Isaac peral 42,Madrid'"
F66,-3.66928,40.5081766,"'28050,ES,Madrid,Madrid,Calle Toques 11,Madrid'"
F67,-3.70086,40.4115533,"'28012,ES,Madrid,Madrid,Calle del Olmo 15,Madrid'"
F68,-3.7008833,40.4115683,"'28012,ES,Madrid,Madrid,Calle del Olmo 15,Madrid'"
F69,-3.686735,40.430425,"'28006,ES,Madrid,Madrid,Calle de José ortega y gasset 4,Madrid'"
F70,-3.6947633,40.4030899,"'28045,ES,Madrid,Madrid,Calle de Palos de la frontera 27,Madrid'"
F71,-3.6372333,40.40846,"'28030,ES,Madrid,Madrid,Avenida del Doctor garcía tapia 196,Madrid'"
F72,-3.67862,40.5096083,"'28050,ES,Madrid,Madrid,Calle de Castiello de jaca 16,Madrid'"
F73,-3.6786533,40.5094083,"'28050,ES,Madrid,Madrid,Calle de Castiello de jaca 22,Madrid'"
F74,-3.7017283,40.4419383,"'28003,ES,Madrid,Madrid,Calle de Santa engracia 129,Madrid'"
F75,-3.7302916,40.4280816,"'28008,ES,Madrid,Madrid,Pasarela de Almuñecar ,Madrid'"
F76,-3.706085,40.4148066,"'28012,ES,Madrid,Madrid,Plaza de la Provincia 3,Madrid'"
F77,-3.6574316,40.40685,"'28030,ES,Madrid,Madrid,Avenida de Moratalaz 45B,Madrid'"
F78,-3.666755,40.4077816,"'28007,ES,Madrid,Madrid,Calle de Piscis 2B,Madrid'"
F79,-3.7302383,40.4279933,"'28008,ES,Madrid,Madrid,Pasarela de Almuñecar ,Madrid'"
F80,-3.6685933,40.399875,"'28007,ES,Madrid,Madrid,Calle de Triquet 8,Madrid'"
F81,-3.7066766,40.4812216,"'28034,ES,Madrid,Madrid,Avenida de la Ilustración ,Madrid'"
F82,-3.6460616,40.436105,"'28027,ES,Madrid,Madrid,Calle de Federico gutiérrez 23,Madrid'"
F83,-3.7163516,40.4804866,"'28034,ES,Madrid,Madrid,Calle de la Isla de arosa 29,Madrid'"
F84,-3.6579533,40.426455,"'28017,ES,Madrid,Madrid,Calle Ricardo ortiz 41,Madrid'"
F85,-3.70359,40.4142566,"'28012,ES,Madrid,Madrid,Calle de Atocha 16,Madrid'"
F86,-3.682495,40.4766333,"'28046,ES,Madrid,Madrid,Calle de Mauricio legendre 38D,Madrid'"
F87,-3.68234,40.4767449,"'28046,ES,Madrid,Madrid,Calle de Mauricio legendre 38D,Madrid'"
F88,-3.682275,40.4767,"'28046,ES,Madrid,Madrid,Calle de Mauricio legendre 38D,Madrid'"
F89,-3.675475,40.4323433,"'28006,ES,Madrid,Madrid,Calle de Juan bravo 53,Madrid'"
F90,-3.682345,40.476705,"'28046,ES,Madrid,Madrid,Calle de Mauricio legendre 38D,Madrid'"
F91,-3.68881,40.409935,"'28014,ES,Madrid,Madrid,Calle de Alfonso xii 54,Madrid'"
F92,-3.6823466,40.476765,"'28046,ES,Madrid,Madrid,Calle de Mauricio legendre 38D,Madrid'"
F93,-3.7228383,40.4109766,"'28011,ES,Madrid,Madrid,Paseo Salón de los pinos ,Madrid'"
F94,-3.6823616,40.4766816,"'28046,ES,Madrid,Madrid,Calle de Mauricio legendre 38D,Madrid'"
F95,-3.686425,40.425945,"'28001,ES,Madrid,Madrid,Calle de Claudio coello 43,Madrid'"
F96,-3.6823716,40.47677,"'28046,ES,Madrid,Madrid,Calle de Mauricio legendre 38D,Madrid'"
F97,-3.6823216,40.476825,"'28046,ES,Madrid,Madrid,Calle de Mauricio legendre 38D,Madrid'"
F98,-3.6821683,40.477375,"'28046,ES,Madrid,Madrid,Calle de Mauricio legendre 59,Madrid'"
F99,-3.6824816,40.4769716,"'28046,ES,Madrid,Madrid,Calle de Mauricio legendre 38D,Madrid'"
F100,-3.70313,40.4535216,"'28020,ES,Madrid,Madrid,Calle de Bravo murillo 181,Madrid'"
F101,-3.65317,40.4428616,"'28027,ES,Madrid,Madrid,Avenida de Badajoz 64,Madrid'"
F102,-3.6921416,40.4254,"'28004,ES,Madrid,Madrid,Calle Marqués de la ensenada 1B,Madrid'"
F103,-3.68902,40.480345,"'28029,ES,Madrid,Madrid,Anillo Distribuidor cuatro torres ,Madrid'"
F104,-3.67542,40.4443116,"'28002,ES,Madrid,Madrid,Calle de Suero de quiñones 3,Madrid'"
F105,-3.7110633,40.4578866,"'28039,ES,Madrid,Madrid,Calle de Ofelia nieto 3,Madrid'"
F106,-3.6865083,40.42668,"'28001,ES,Madrid,Madrid,Calle de Claudio coello 44,Madrid'"
F107,-3.7288483,40.408805,"'28011,ES,Madrid,Madrid,Calle de Calatayud 8,Madrid'"
F108,-3.695565,40.3824033,"'28026,ES,Madrid,Madrid,Calle de Antonio lópez 209,Madrid'"
F109,-3.651535,40.442775,"'28027,ES,Madrid,Madrid,Calle de Aristóteles 7,Madrid'"
F110,-3.6393333,40.4462783,"'28027,ES,Madrid,Madrid,Calle General aranaz 62M,Madrid'"
F111,-3.6574566,40.4106716,"'28030,ES,Madrid,Madrid,Calle del Camino de los vinateros 9,Madrid'"
F112,-3.7009566,40.4573199,"'28020,ES,Madrid,Madrid,Calle de San germán 74,Madrid'"
F113,-3.7374883,40.40267,"'28047,ES,Madrid,Madrid,Calle Cjal. francisco josé jiménez martín 28,Madrid'"
F114,-3.5917466,40.4043749,"'28032,ES,Madrid,Madrid,Carretera de Vicálvaro a la estac. o'donnell 7,Madrid'"
F115,-3.6977633,40.3994549,"'28045,ES,Madrid,Madrid,Calle del General palanca 20,Madrid'"
F116,-3.7117816,40.4035383,"'28005,ES,Madrid,Madrid,Travesía de San isidoro de sevilla 13,Madrid'"
F117,-3.735005,40.4080916,"'28011,ES,Madrid,Madrid,Paseo Jesuitas 67,Madrid'"
F118,-3.7102116,40.4141549,"'28005,ES,Madrid,Madrid, Cm-43 1,Madrid'"
F119,-3.710095,40.43646,"'28015,ES,Madrid,Madrid,Calle de Galileo 74,Madrid'"
F120,-3.6939683,40.3915566,"'28045,ES,Madrid,Madrid,Calle de Bolívar 10,Madrid'"
F121,-3.6858449,40.4129166,"'28009,ES,Madrid,Madrid,Plaza Independencia ,Madrid'"
F122,-3.703695,40.4143866,"'28012,ES,Madrid,Madrid,Calle de Atocha 16,Madrid'"
F123,-3.6443083,40.4403133,"'28027,ES,Madrid,Madrid,Calle del Sol naciente 30,Madrid'"
F124,-3.6363649,40.446505,"'28027,ES,Madrid,Madrid,Calle de Belice 36,Madrid'"
F125,-3.6475933,40.48778,"'28050,ES,Madrid,Madrid,Calle Miguel ángel asturias 4,Madrid'"
F126,-3.6476016,40.48779,"'28050,ES,Madrid,Madrid,Calle Miguel ángel asturias 4,Madrid'"
F127,-3.7347366,40.4189483,"'28011,ES,Madrid,Madrid,Paseo de María teresa 14,Madrid'"
F128,-3.6639333,40.4295383,"'28028,ES,Madrid,Madrid,Calle de Bocángel 6,Madrid'"
F129,-3.6751766,40.4440816,"'28002,ES,Madrid,Madrid,Plaza de la Prosperidad 2,Madrid'"
F130,-3.6778166,40.4152366,"'28009,ES,Madrid,Madrid,Avenida de Menéndez pelayo 63,Madrid'"
F131,-3.7059733,40.428495,"'28015,ES,Madrid,Madrid,Calle de San bernardo 87,Madrid'"
F132,-3.71364,40.4577916,"'28040,ES,Madrid,Madrid,Calle de María auxiliadora 3,Madrid'"
F133,-3.69361,40.4008333,"'28045,ES,Madrid,Madrid,Calle de Bustamante 1,Madrid'"
F134,-3.6820683,40.4964166,"'28034,ES,Madrid,Madrid,Calle de Antonio de cabezón 53,Madrid'"
F135,-3.6575766,40.414215,"'28030,ES,Madrid,Madrid,Calle del Alcalde garrido juaristi 2,Madrid'"
F136,-3.6527616,40.4911416,"'28050,ES,Madrid,Madrid,Calle del Príncipe carlos 36,Madrid'"
F137,-3.7310966,40.4868633,"'28035,ES,Madrid,Madrid,Calle de Irene caba alba 2,Madrid'"
F138,-3.6777233,40.4153266,"'28009,ES,Madrid,Madrid,Avenida de Menéndez pelayo 63,Madrid'"
F139,-3.7082766,40.4202883,"'28013,ES,Madrid,Madrid,Plaza de Santo domingo 16,Madrid'"
F140,-3.6510849,40.4099083,"'28030,ES,Madrid,Madrid,Calle del Camino de los vinateros 78,Madrid'"
F141,-3.6997149,40.42071,"'28004,ES,Madrid,Madrid,Calle de las Infantas 20,Madrid'"
F142,-3.70796,40.394915,"'28019,ES,Madrid,Madrid,Calle San delfín 6,Madrid'"
F143,-3.6820783,40.4769616,"'28046,ES,Madrid,Madrid,Calle de Mauricio legendre 38D,Madrid'"
F144,-3.7102283,40.4364966,"'28015,ES,Madrid,Madrid,Calle de Galileo 74B,Madrid'"
F145,-3.68211,40.476755,"'28046,ES,Madrid,Madrid,Calle de Mauricio legendre 38D,Madrid'"
F146,-3.682,40.476845,"'28046,ES,Madrid,Madrid,Calle de Mauricio legendre 38D,Madrid'"
F147,-3.6550633,40.4898366,"'28050,ES,Madrid,Madrid,Calle de la Princesa de éboli 29,Madrid'"
F148,-3.7304066,40.4286033,"'28008,ES,Madrid,Madrid,Avenida de Valladolid 47B,Madrid'"
F149,-3.6746366,40.4988933,"'28050,ES,Madrid,Madrid,Calle Obanos 7,Madrid'"
F150,-3.682065,40.476935,"'28046,ES,Madrid,Madrid,Calle de Mauricio legendre 38D,Madrid'"
F151,-3.69355,40.4077483,"'28012,ES,Madrid,Madrid,Plaza del Emperador carlos v 7,Madrid'"
F152,-3.6824316,40.4786033,"'28046,ES,Madrid,Madrid,Calle de Mauricio legendre 59,Madrid'"
F153,-3.7052283,40.4215666,"'28004,ES,Madrid,Madrid,Calle de la Luna 4,Madrid'"
F154,-3.729335,40.42636,"'28008,ES,Madrid,Madrid,Calle de la Ribera del manzanares 95,Madrid'"
F155,-3.7177833,40.4397716,"'28040,ES,Madrid,Madrid,Calle de Isaac peral 42,Madrid'"
F156,-3.7128933,40.4172216,"'28013,ES,Madrid,Madrid,Calle de Requena 7,Madrid'"
F157,-3.655015,40.48985,"'28050,ES,Madrid,Madrid,Calle de la Princesa de éboli 29,Madrid'"
F158,-3.734465,40.4189316,"'28011,ES,Madrid,Madrid,Paseo de María teresa 14,Madrid'"
F159,-3.7072633,40.4223966,"'28004,ES,Madrid,Madrid,Calle de la Estrella 19,Madrid'"
F160,-3.6528933,40.4611899,"'28043,ES,Madrid,Madrid,Calle de Mayorga 6,Madrid'"
F161,-3.7060116,40.4284366,"'28015,ES,Madrid,Madrid,Calle de San bernardo 82,Madrid'"
F162,-3.68553,40.5047333,"'28034,ES,Madrid,Madrid,Calle de Nuestra señora de valverde 191,Madrid'"
F163,-3.6680483,40.4821533,"'28033,ES,Madrid,Madrid,Calle de Caleruega 106,Madrid'"
F164,-3.7347266,40.4163483,"'28011,ES,Madrid,Madrid,Ronda del Lago 2,Madrid'"
F165,-3.7345783,40.4190216,"'28011,ES,Madrid,Madrid,Paseo de María teresa 14,Madrid'"
F166,-3.7090416,40.411385,"'28005,ES,Madrid,Madrid,Plaza de la Cebada 3,Madrid'"
F167,-3.7347666,40.4164433,"'28011,ES,Madrid,Madrid,Ronda del Lago 2,Madrid'"
F168,-3.68251,40.4775116,"'28046,ES,Madrid,Madrid,Calle de Mauricio legendre 59,Madrid'"
F169,-3.6824283,40.4767366,"'28046,ES,Madrid,Madrid,Calle de Mauricio legendre 38D,Madrid'"
F170,-3.7262033,40.4900716,"'28035,ES,Madrid,Madrid,Calle de Federica montseny 2,Madrid'"
F171,-3.7038633,40.4098783,"'28012,ES,Madrid,Madrid,Plaza Nelson mandela ,Madrid'"
F172,-3.6852583,40.479465,"'28046,ES,Madrid,Madrid,Paseo de la Castellana 298,Madrid'"
F173,-3.7020566,40.4282183,"'28004,ES,Madrid,Madrid,Calle de Fuencarral 104,Madrid'"
F174,-3.63913,40.4461016,"'28027,ES,Madrid,Madrid,Calle General aranaz 62K,Madrid'"
F175,-3.636345,40.4465833,"'28027,ES,Madrid,Madrid,Calle de Belice 38,Madrid'"
F176,-3.6363433,40.4465983,"'28027,ES,Madrid,Madrid,Calle de Belice 38,Madrid'"
F177,-3.6707016,40.4821683,"'28033,ES,Madrid,Madrid,Calle de Caleruega 65,Madrid'"
F178,-3.6881766,40.4005766,"'28045,ES,Madrid,Madrid,Calle de Bustamante 16,Madrid'"
F179,-3.6823833,40.47655,"'28046,ES,Madrid,Madrid,Calle de Mauricio legendre 38D,Madrid'"
F180,-3.6822266,40.4769133,"'28046,ES,Madrid,Madrid,Calle de Mauricio legendre 38D,Madrid'"
F181,-3.6699383,40.4061583,"'28007,ES,Madrid,Madrid,Calle de Carlos y guillermo fernández shaw 1H,Madrid'"
F182,-3.6678433,40.492255,"'28050,ES,Madrid,Madrid,Calle de María de las nieves lozano ,Madrid'"
F183,-3.7197866,40.3925766,"'28019,ES,Madrid,Madrid,Calle de Belmonte de tajo 26,Madrid'"
F184,-3.7295583,40.428815,"'28008,ES,Madrid,Madrid,Avenida de Valladolid 43,Madrid'"
F185,-3.6864316,40.4262033,"'28001,ES,Madrid,Madrid,Calle de Claudio coello 42,Madrid'"
F186,-3.69816,40.41829,"'28014,ES,Madrid,Madrid,Calle de Alcalá 30,Madrid'"
F187,-3.70412,40.447825,"'28039,ES,Madrid,Madrid,Calle del Doctor santero 2,Madrid'"
F188,-3.6990633,40.41802,"'28014,ES,Madrid,Madrid,Calle de Alcalá 22,Madrid'"
F189,-3.7233266,40.41129,"'28011,ES,Madrid,Madrid,Paseo de la Ermita del santo 16,Madrid'"
F190,-3.682435,40.476685,"'28046,ES,Madrid,Madrid,Calle de Mauricio legendre 38D,Madrid'"
F191,-3.6573,40.4890199,"'28050,ES,Madrid,Madrid,Plaza del Alcalde moreno torres 21,Madrid'"
F192,-3.6823166,40.4772416,"'28046,ES,Madrid,Madrid,Calle de Mauricio legendre 38D,Madrid'"
F193,-3.6824366,40.47676,"'28046,ES,Madrid,Madrid,Calle de Mauricio legendre 38D,Madrid'"
F194,-3.64327,40.42849,"'28017,ES,Madrid,Madrid,Calle de Ezequiel solana 80,Madrid'"
F195,-3.6823366,40.4768016,"'28046,ES,Madrid,Madrid,Calle de Mauricio legendre 38D,Madrid'"
F196,-3.692685,40.4191783,"'28014,ES,Madrid,Madrid,Plaza de Cibeles 1,Madrid'"
F197,-3.6824716,40.4766216,"'28046,ES,Madrid,Madrid,Calle de Mauricio legendre 38D,Madrid'"
F198,-3.6938783,40.392655,"'28045,ES,Madrid,Madrid,Calle de Embajadores 192,Madrid'"
F199,-3.712095,40.4081766,"'28005,ES,Madrid,Madrid,Plaza de la Virgen de la paloma 1,Madrid'"
F200,-3.6513566,40.4060516,"'28030,ES,Madrid,Madrid,Calle del Arroyo de las pilillas 1,Madrid'"
F201,-3.6656533,40.4850233,"'28050,ES,Madrid,Madrid,Calle de Dulce chacón 15,Madrid'"
F202,-3.6656066,40.484995,"'28050,ES,Madrid,Madrid,Calle de Dulce chacón 15,Madrid'"
F203,-3.6484233,40.4370349,"'28027,ES,Madrid,Madrid,Calle de José del hierro ,Madrid'"
F204,-3.6298516,40.4290583,"'28037,ES,Madrid,Madrid,Calle de Mieres 16,Madrid'"
F205,-3.6513133,40.4497549,"'28043,ES,Madrid,Madrid,Calle de Arturo soria 128,Madrid'"
F206,-3.6750349,40.4216166,"'28009,ES,Madrid,Madrid,Calle de Fernán gonzález 41,Madrid'"
F207,-3.704075,40.44763,"'28039,ES,Madrid,Madrid,Calle del Doctor santero 2,Madrid'"
F208,-3.7087683,40.4096233,"'28005,ES,Madrid,Madrid,Calle de López silva 10,Madrid'"
F209,-3.6947433,40.4351633,"'28010,ES,Madrid,Madrid,Calle de Fernández de la hoz 29,Madrid'"
F210,-3.6832466,40.43459,"'28006,ES,Madrid,Madrid,Calle de Velázquez 93,Madrid'"
F211,-3.6411516,40.4299283,"'28017,ES,Madrid,Madrid,Calle de Ascao 29,Madrid'"
F212,-3.6824016,40.4767866,"'28046,ES,Madrid,Madrid,Calle de Mauricio legendre 38D,Madrid'"
F213,-3.6975416,40.4413466,"'28003,ES,Madrid,Madrid,Calle de Alonso cano 46,Madrid'"
F214,-3.6639983,40.4302483,"'28028,ES,Madrid,Madrid,Calle de Alejandro gonzález 2,Madrid'"
F215,-3.6446933,40.4401,"'28027,ES,Madrid,Madrid,Calle del Sol naciente 26,Madrid'"
F216,-3.6582766,40.392725,"'28038,ES,Madrid,Madrid,Avenida de la Albufera 137,Madrid'"
F217,-3.6691516,40.4052466,"'28007,ES,Madrid,Madrid,Calle de Carlos y guillermo fernández shaw 1C,Madrid'"
F218,-3.6824016,40.476765,"'28046,ES,Madrid,Madrid,Calle de Mauricio legendre 38D,Madrid'"
F219,-3.6740366,40.4261183,"'28006,ES,Madrid,Madrid,Calle de Alcántara 4,Madrid'"
F220,-3.6818416,40.4220016,"'28009,ES,Madrid,Madrid,Calle de Alcalá 111,Madrid'"
F221,-3.7060133,40.4283666,"'28015,ES,Madrid,Madrid,Calle de San bernardo 85,Madrid'"
F222,-3.6971266,40.4289016,"'28010,ES,Madrid,Madrid,Calle de Covarrubias 5,Madrid'"
F223,-3.6919766,40.4253866,"'28004,ES,Madrid,Madrid,Calle Marqués de la ensenada 1B,Madrid'"
F224,-3.6302916,40.4358716,"'28037,ES,Madrid,Madrid,Calle Santa leonor 51,Madrid'"
F225,-3.682385,40.4767066,"'28046,ES,Madrid,Madrid,Calle de Mauricio legendre 38D,Madrid'"
F226,-3.7087516,40.41108,"'28005,ES,Madrid,Madrid,Calle de Toledo 67,Madrid'"
F227,-3.6962116,40.4226599,"'28004,ES,Madrid,Madrid,Calle de Gravina 23,Madrid'"
F228,-3.6821316,40.476685,"'28046,ES,Madrid,Madrid,Calle de Mauricio legendre 38D,Madrid'"
F229,-3.6823483,40.476635,"'28046,ES,Madrid,Madrid,Calle de Mauricio legendre 38D,Madrid'"
F230,-3.6825016,40.4765199,"'28046,ES,Madrid,Madrid,Calle de Mauricio legendre 38D,Madrid'"
F231,-3.6822549,40.476995,"'28046,ES,Madrid,Madrid,Calle de Mauricio legendre 38D,Madrid'"
F232,-3.6851883,40.4455183,"'28002,ES,Madrid,Madrid,Plaza de la República argentina 6,Madrid'"
F233,-3.6824333,40.4768133,"'28046,ES,Madrid,Madrid,Calle de Mauricio legendre 38D,Madrid'"
F234,-3.65446,40.4300649,"'28017,ES,Madrid,Madrid,Calle de Cipriano sancho 36,Madrid'"
F235,-3.650335,40.4330816,"'28027,ES,Madrid,Madrid,Calle del Concejal julio gómez 1,Madrid'"
F236,-3.6883983,40.42189,"'28001,ES,Madrid,Madrid,Calle de Serrano 10,Madrid'"
F237,-3.6260016,40.4378633,"'28037,ES,Madrid,Madrid,Calle Albasánz 50,Madrid'"
F238,-3.637405,40.4085199,"'28030,ES,Madrid,Madrid,Avenida del Doctor garcía tapia 194,Madrid'"
F239,-3.7113683,40.411485,"'28005,ES,Madrid,Madrid,Plaza de Puerta de moros 6,Madrid'"
F240,-3.7298066,40.426015,"'28008,ES,Madrid,Madrid,Calle de Santovenia 1,Madrid'"
F241,-3.62989,40.4105049,"'28030,ES,Madrid,Madrid,Calle de José bergamín ,Madrid'"
F242,-3.713785,40.4016,"'28005,ES,Madrid,Madrid,Calle de Toledo 181,Madrid'"
F243,-3.6740716,40.4009983,"'28007,ES,Madrid,Madrid,Avenida de la Ciudad de barcelona 81B,Madrid'"
F244,-3.66916,40.4052549,"'28007,ES,Madrid,Madrid,Calle de Carlos y guillermo fernández shaw 1C,Madrid'"
F245,-3.6812283,40.4283199,"'28001,ES,Madrid,Madrid,Calle de Castelló 61,Madrid'"
F246,-3.70374,40.4266983,"'28004,ES,Madrid,Madrid,Calle de San andrés 14,Madrid'"
F247,-3.7337016,40.428975,"'28008,ES,Madrid,Madrid,Paseo del Comandante fortea 68,Madrid'"
F248,-3.6952233,40.4485283,"'28020,ES,Madrid,Madrid,Calle de Orense 8,Madrid'"
F249,-3.6791483,40.4023716,"'28007,ES,Madrid,Madrid,Calle de León gil de palacio 5,Madrid'"
F250,-3.7133233,40.4313866,"'28015,ES,Madrid,Madrid,Calle de Guzmán el bueno 10,Madrid'"
F251,-3.7095266,40.4509,"'28039,ES,Madrid,Madrid,Avenida del Doctor federico rubio y gali 27,Madrid'"
F252,-3.7288716,40.414035,"'28011,ES,Madrid,Madrid,Plaza de la Puerta del ángel 3,Madrid'"
F253,-3.6542483,40.3766,"'28018,ES,Madrid,Madrid,Calle de Novecento 5,Madrid'"
F254,-3.6846433,40.486655,"'28034,ES,Madrid,Madrid,Avenida del Llano castellano 2,Madrid'"
F255,-3.682435,40.4768366,"'28046,ES,Madrid,Madrid,Calle de Mauricio legendre 38D,Madrid'"
F256,-3.6922833,40.3900966,"'28045,ES,Madrid,Madrid,Calle de Embajadores 183B,Madrid'"
F257,-3.7070066,40.5031683,"'28049,ES,Madrid,Madrid,Calle Monasterio de las huelgas 17,Madrid'"
F258,-3.6953099,40.4440233,"'28003,ES,Madrid,Madrid,Calle de María de guzmán 65,Madrid'"
F259,-3.6929766,40.4108683,"'28014,ES,Madrid,Madrid,Calle de Almadén 28,Madrid'"
F260,-3.6806099,40.4215433,"'28009,ES,Madrid,Madrid,Calle de Aguirre 7,Madrid'"
F261,-3.6657833,40.4324766,"'28028,ES,Madrid,Madrid,Avenida de los Toreros 47,Madrid'"
F262,-3.643275,40.40636,"'28030,ES,Madrid,Madrid,Calle del Camino de los vinateros 127,Madrid'"
F263,-3.6837383,40.43146,"'28006,ES,Madrid,Madrid,Calle de Velázquez 86,Madrid'"
F264,-3.7290683,40.4498433,"'28040,ES,Madrid,Madrid,Avenida Complutense ,Madrid'"
F265,-3.7014216,40.4174133,"'28014,ES,Madrid,Madrid,Calle de Alcalá 8,Madrid'"
F266,-3.7038516,40.4267133,"'28004,ES,Madrid,Madrid,Plaza del Dos de mayo 9,Madrid'"
F267,-3.6494783,40.4454633,"'28027,ES,Madrid,Madrid,Calle de Amara 9,Madrid'"
F268,-3.710375,40.4237033,"'28015,ES,Madrid,Madrid,Calle de los Reyes 23,Madrid'"
F269,-3.6765016,40.4609733,"'28016,ES,Madrid,Madrid,Avenida de Pío xii 3,Madrid'"
F270,-3.6513733,40.4061683,"'28030,ES,Madrid,Madrid,Calle del Arroyo de las pilillas 1,Madrid'"
F271,-3.6999966,40.388835,"'28026,ES,Madrid,Madrid,Calle de Antonio lópez 131,Madrid'"
F272,-3.6758716,40.42484,"'28006,ES,Madrid,Madrid,Calle del Conde de peñalver 1,Madrid'"
F273,-3.701985,40.4242266,"'28004,ES,Madrid,Madrid,Plaza de San ildefonso 5,Madrid'"
F274,-3.656105,40.4557033,"'28043,ES,Madrid,Madrid,Calle de Luis carlos vázquez 172,Madrid'"
F275,-3.682325,40.4767016,"'28046,ES,Madrid,Madrid,Calle de Mauricio legendre 38D,Madrid'"
F276,-3.6708483,40.4821883,"'28033,ES,Madrid,Madrid,Calle de Caleruega 65,Madrid'"
F277,-3.6991283,40.435905,"'28010,ES,Madrid,Madrid,Calle de Santa engracia 68,Madrid'"
F278,-3.7000083,40.4265716,"'28004,ES,Madrid,Madrid,Calle de Barceló 9,Madrid'"
F279,-3.6637283,40.487695,"'28050,ES,Madrid,Madrid,Avenida de Manoteras 46B,Madrid'"
F280,-3.7135933,40.4308866,"'28015,ES,Madrid,Madrid,Calle de Guzmán el bueno 5,Madrid'"
F281,-3.7127116,40.4063933,"'28005,ES,Madrid,Madrid,Paseo de Pontones 1,Madrid'"
F282,-3.6825016,40.4765816,"'28046,ES,Madrid,Madrid,Calle de Mauricio legendre 38D,Madrid'"
F283,-3.7181866,40.4137549,"'28005,ES,Madrid,Madrid,Calle de Segovia 53,Madrid'"
F284,-3.6824216,40.4766966,"'28046,ES,Madrid,Madrid,Calle de Mauricio legendre 38D,Madrid'"
F285,-3.682305,40.47623,"'28046,ES,Madrid,Madrid,Calle de Mauricio legendre 38D,Madrid'"
F286,-3.6823499,40.4767683,"'28046,ES,Madrid,Madrid,Calle de Mauricio legendre 38D,Madrid'"
F287,-3.6779316,40.4516233,"'28002,ES,Madrid,Madrid,Avenida de Concha espina 69,Madrid'"
F288,-3.6801916,40.4164433,"'28009,ES,Madrid,Madrid,Paseo de Fernán núñez ,Madrid'"
F289,-3.72121,40.3924016,"'28019,ES,Madrid,Madrid,Calle de los Hermanos del moral 28,Madrid'"
F290,-3.7348583,40.416475,"'28011,ES,Madrid,Madrid,Ronda del Lago 2,Madrid'"
F291,-3.658555,40.4931766,"'28050,ES,Madrid,Madrid,Calle de la Princesa de éboli 41,Madrid'"
F292,-3.6958433,40.4161616,"'28014,ES,Madrid,Madrid,Calle del Marqués de cubas 18,Madrid'"
F293,-3.6651399,40.4260083,"'28028,ES,Madrid,Madrid,Paseo del Marqués de zafra 26,Madrid'"
F294,-3.6822733,40.4766166,"'28046,ES,Madrid,Madrid,Calle de Mauricio legendre 38D,Madrid'"
F295,-3.6486183,40.4329816,"'28027,ES,Madrid,Madrid,Calle de Alcalá 335,Madrid'"
F296,-3.66944,40.4156983,"'28007,ES,Madrid,Madrid,Calle del Doctor esquerdo 101,Madrid'"
F297,-3.7037283,40.4097933,"'28012,ES,Madrid,Madrid,Plaza Nelson mandela ,Madrid'"
F298,-3.65908,40.4913683,"'28050,ES,Madrid,Madrid,Calle de la Princesa de éboli 3,Madrid'"
F299,-3.663865,40.4305966,"'28028,ES,Madrid,Madrid,Calle de Alcalá 200B,Madrid'"
F300,-3.7114833,40.4114466,"'28005,ES,Madrid,Madrid,Plaza de Puerta de moros 6,Madrid'"
F301,-3.7116366,40.4193933,"'28013,ES,Madrid,Madrid,Calle de Pavia 6,Madrid'"
F302,-3.6922033,40.4352616,"'28010,ES,Madrid,Madrid,Paseo del General martínez campos 42B,Madrid'"
F303,-3.7163983,40.3981066,"'28019,ES,Madrid,Madrid,Glorieta Marqués de vadillo 8,Madrid'"
F304,-3.6742616,40.4258266,"'28006,ES,Madrid,Madrid,Calle de Hermosilla 101,Madrid'"
F305,-3.6628716,40.4394733,"'28028,ES,Madrid,Madrid,Avenida de Bruselas 56,Madrid'"
F306,-3.664445,40.4034799,"'28038,ES,Madrid,Madrid,Calle de las Moreras 14,Madrid'"
F307,-3.7040333,40.47838,"'28029,ES,Madrid,Madrid,Calle de Ginzo de limia 35,Madrid'"
F308,-3.7371649,40.4029316,"'28047,ES,Madrid,Madrid,Calle de Riocabado 1,Madrid'"
F309,-3.733755,40.4288633,"'28008,ES,Madrid,Madrid,Paseo del Comandante fortea 66,Madrid'"
F310,-3.7288333,40.4089983,"'28011,ES,Madrid,Madrid,Calle de Caramuel 51,Madrid'"
F311,-3.719845,40.4347583,"'28008,ES,Madrid,Madrid,Paseo de Moret 1A,Madrid'"
F312,-3.6993866,40.4208583,"'28004,ES,Madrid,Madrid,Plaza de Pedro zerolo 14,Madrid'"
F313,-3.7165483,40.3981566,"'28019,ES,Madrid,Madrid,Glorieta Marqués de vadillo 9,Madrid'"
F314,-3.70657,40.397435,"'28005,ES,Madrid,Madrid,Paseo Yeserías 45,Madrid'"
F315,-3.663745,40.4877216,"'28050,ES,Madrid,Madrid,Avenida de Manoteras 46B,Madrid'"
F316,-3.693615,40.4112733,"'28014,ES,Madrid,Madrid,Calle de la Alameda 16,Madrid'"
F317,-3.7004616,40.4267299,"'28004,ES,Madrid,Madrid,Calle de Churruca 1,Madrid'"
F318,-3.6932133,40.41842,"'28014,ES,Madrid,Madrid,Paseo del Prado 1,Madrid'"
F319,-3.66966,40.4155783,"'28007,ES,Madrid,Madrid,Calle del Doctor esquerdo 101,Madrid'"
F320,-3.6739183,40.4682666,"'28016,ES,Madrid,Madrid,Avenida de Pío xii 77,Madrid'"
F321,-3.7333466,40.4332016,"'28008,ES,Madrid,Madrid,Avenida de Valladolid 83,Madrid'"
F322,-3.6690883,40.4051833,"'28007,ES,Madrid,Madrid,Calle de Carlos y guillermo fernández shaw 1F,Madrid'"
F323,-3.698985,40.4419116,"'28003,ES,Madrid,Madrid,Calle de Ríos rosas 30,Madrid'"
F324,-3.7009216,40.4573716,"'28020,ES,Madrid,Madrid,Calle de San germán 74,Madrid'"
F325,-3.7035133,40.445915,"'28003,ES,Madrid,Madrid,Calle de Santa engracia 179,Madrid'"
F326,-3.6863066,40.49939,"'28034,ES,Madrid,Madrid,Calle de Nuestra señora de valverde 148,Madrid'"
F327,-3.7002283,40.3887216,"'28026,ES,Madrid,Madrid,Calle de Antonio lópez 168,Madrid'"
F328,-3.6451616,40.4084166,"'28030,ES,Madrid,Madrid,Avenida de Moratalaz 166,Madrid'"
F329,-3.742195,40.39063,"'28025,ES,Madrid,Madrid,Calle de la Laguna 95,Madrid'"
F330,-3.725425,40.405475,"'28011,ES,Madrid,Madrid,Jardín El capricho ,Madrid'"
F331,-3.6655999,40.4643783,"'28033,ES,Madrid,Madrid,Calle de Arturo soria 243B,Madrid'"
F332,-3.7299133,40.4036266,"'28047,ES,Madrid,Madrid,Calle Cjal. francisco josé jiménez martín 2,Madrid'"
F333,-3.688775,40.43562,"'28046,ES,Madrid,Madrid,Glorieta de Emilio castelar ,Madrid'"
F334,-3.6062966,40.4352516,"'28022,ES,Madrid,Madrid,Plaza de Grecia 1,Madrid'"
F335,-3.6909183,40.3889816,"'28045,ES,Madrid,Madrid,Calle del Sodio 1,Madrid'"
F336,-3.70333,40.465645,"'28039,ES,Madrid,Madrid,Calle de los Voluntarios catalanes 64B,Madrid'"
F337,-3.7021566,40.40545,"'28012,ES,Madrid,Madrid,Glorieta de Embajadores 1,Madrid'"
F338,-3.6977716,40.396205,"'28045,ES,Madrid,Madrid,Calle del Divino vallés 28,Madrid'"
F339,-3.6667616,40.41205,"'28007,ES,Madrid,Madrid,Pasaje Can mayor 4,Madrid'"
F340,-3.6378233,40.4086716,"'28030,ES,Madrid,Madrid,Calle de Molina de segura 2,Madrid'"
F341,-3.5411383,40.436305,"'28821,ES,Madrid,Madrid, M-21 ,Madrid'"
F342,-3.6696383,40.3987333,"'28007,ES,Madrid,Madrid,Calle de Arregui y aruej 2,Madrid'"
F343,-3.674105,40.400785,"'28007,ES,Madrid,Madrid,Avenida de la Ciudad de barcelona 81B,Madrid'"
F344,-3.6950566,40.4243366,"'28004,ES,Madrid,Madrid,Calle de Fernando vi 14,Madrid'"
F345,-3.6579566,40.4074033,"'28030,ES,Madrid,Madrid,Plaza del Corregidor alonso de aguilar 5,Madrid'"
F346,-3.7176883,40.3900816,"'28019,ES,Madrid,Madrid,Calle Antoñita jiménez 21,Madrid'"
F347,-3.6946866,40.4238016,"'28004,ES,Madrid,Madrid,Plaza de Salesas 8,Madrid'"
F348,-3.6945033,40.4243133,"'28004,ES,Madrid,Madrid,Plaza de Salesas 2,Madrid'"
F349,-3.694505,40.4243199,"'28004,ES,Madrid,Madrid,Plaza de Salesas 2,Madrid'"
F350,-3.6893649,40.461715,"'28046,ES,Madrid,Madrid,Paseo de la Castellana 194,Madrid'"
F351,-3.5949833,40.4529866,"'28042,ES,Madrid,Madrid, V.c. vía verde de la gasolina ,Madrid'"
F352,-3.5950016,40.45295,"'28042,ES,Madrid,Madrid, V.c. vía verde de la gasolina ,Madrid'"
F353,-3.6485633,40.4327249,"'28017,ES,Madrid,Madrid,Calle de José maría pereda 1,Madrid'"
F354,-3.6807433,40.4225333,"'28009,ES,Madrid,Madrid,Calle de Alcalá 119,Madrid'"
F355,-3.685215,40.4794866,"'28046,ES,Madrid,Madrid,Paseo de la Castellana 298,Madrid'"
F356,-3.7044733,40.4081533,"'28012,ES,Madrid,Madrid,Calle de Embajadores 52,Madrid'"
F357,-3.6993599,40.4362016,"'28010,ES,Madrid,Madrid,Calle de Santa engracia 89,Madrid'"
F358,-3.6885866,40.4214883,"'28001,ES,Madrid,Madrid,Calle de Serrano 5,Madrid'"
F359,-3.672305,40.4214766,"'28009,ES,Madrid,Madrid, Tunel de o'donnell 53,Madrid'"
F360,-3.721805,40.3932366,"'28019,ES,Madrid,Madrid,Calle de Mercedes arteaga 15,Madrid'"
F361,-3.7195066,40.4090099,"'28005,ES,Madrid,Madrid,Calle de Juan duque 47,Madrid'"
F362,-3.65133,40.4260266,"'28017,ES,Madrid,Madrid,Avenida del Marqués de corbera 50,Madrid'"
F363,-3.6705833,40.4823683,"'28033,ES,Madrid,Madrid,Calle de Caleruega 67,Madrid'"
F364,-3.7059816,40.428415,"'28015,ES,Madrid,Madrid,Calle de San bernardo 82,Madrid'"
F365,-3.6743366,40.4008033,"'28007,ES,Madrid,Madrid,Calle del Cerro de la plata 1,Madrid'"
F366,-3.6928116,40.44155,"'28003,ES,Madrid,Madrid,Plaza de San juan de la cruz 11,Madrid'"
F367,-3.6802666,40.4048933,"'28007,ES,Madrid,Madrid,Avenida de Menéndez pelayo 38,Madrid'"
F368,-3.693795,40.4521949,"'28020,ES,Madrid,Madrid,Avenida de la Vaguada ,Madrid'"
F369,-3.7058983,40.4056766,"'28005,ES,Madrid,Madrid,Ronda de Toledo 20H,Madrid'"
F370,-3.7060566,40.428295,"'28015,ES,Madrid,Madrid,Calle de San bernardo 80,Madrid'"
F371,-3.641605,40.391655,"'28038,ES,Madrid,Madrid,Calle de los Andaluces 2,Madrid'"
F372,-3.6987483,40.3862216,"'28026,ES,Madrid,Madrid,Avenida de Córdoba 9A,Madrid'"
F373,-3.6730733,40.41805,"'28009,ES,Madrid,Madrid,Calle de Ibiza 46,Madrid'"
F374,-3.7248066,40.4143066,"'28011,ES,Madrid,Madrid,Calle de Saavedra fajardo 10,Madrid'"
F375,-3.70605,40.4284516,"'28015,ES,Madrid,Madrid,Calle de San bernardo 82,Madrid'"
F376,-3.6290283,40.4805716,"'28055,ES,Madrid,Madrid,Glorieta de Luis cubillo ,Madrid'"
F377,-3.6977683,40.4252033,"'28004,ES,Madrid,Madrid,Calle de Hortaleza 104,Madrid'"
F378,-3.7047816,40.4069016,"'28005,ES,Madrid,Madrid,Calle del Casino 8,Madrid'"
F379,-3.6977416,40.4251966,"'28004,ES,Madrid,Madrid,Calle de Hortaleza 104,Madrid'"
F380,-3.6775766,40.3928966,"'28045,ES,Madrid,Madrid,Calle Titán 4,Madrid'"
F381,-3.6945099,40.4239333,"'28004,ES,Madrid,Madrid,Plaza de Salesas 8,Madrid'"
F382,-3.6977166,40.4509233,"'28020,ES,Madrid,Madrid,Calle de la Reina mercedes 18,Madrid'"
F383,-3.6711233,40.4820766,"'28033,ES,Madrid,Madrid,Calle de Caleruega 63,Madrid'"
F384,-3.67041,40.4051366,"'28007,ES,Madrid,Madrid,Calle de Santa sabina 3,Madrid'"
F385,-3.6876683,40.4268716,"'28001,ES,Madrid,Madrid,Calle de Serrano 44B,Madrid'"
F386,-3.6994349,40.4367666,"'28010,ES,Madrid,Madrid,Calle de Santa engracia 78,Madrid'"
F387,-3.6701283,40.498655,"'28050,ES,Madrid,Madrid,Calle Quintanadueñas 12,Madrid'"
F388,-3.6788383,40.42608,"'28001,ES,Madrid,Madrid,Calle de Hermosilla 70,Madrid'"
F389,-3.62463,40.43821,"'28037,ES,Madrid,Madrid,Calle Albasánz 64,Madrid'"
F390,-3.7304333,40.4282116,"'28008,ES,Madrid,Madrid,Calle de Aniceto marinas 98,Madrid'"
F391,-3.7266566,40.4249849,"'28008,ES,Madrid,Madrid,Puente de la Reina victoria ,Madrid'"
F392,-3.6773616,40.449225,"'28002,ES,Madrid,Madrid,Calle del Príncipe de vergara 202,Madrid'"
F393,-3.6703816,40.4051283,"'28007,ES,Madrid,Madrid,Calle de Santa sabina 3,Madrid'"
F394,-3.6913966,40.4330333,"'28010,ES,Madrid,Madrid,Glorieta Rubén darío 2,Madrid'"
F395,-3.7348183,40.4163933,"'28011,ES,Madrid,Madrid,Ronda del Lago 2,Madrid'"
F396,-3.6633666,40.48771,"'28050,ES,Madrid,Madrid,Avenida de Manoteras 46D,Madrid'"
F397,-3.687515,40.4267833,"'28001,ES,Madrid,Madrid,Calle de Serrano 44,Madrid'"
F398,-3.6953416,40.4277883,"'28004,ES,Madrid,Madrid,Plaza de Alonso martínez 5,Madrid'"
F399,-3.6491916,40.4441566,"'28027,ES,Madrid,Madrid,Calle de Agastia 20,Madrid'"
F400,-3.659095,40.490505,"'28050,ES,Madrid,Madrid,Avenida de Francisco pi y margall 72,Madrid'"
F401,-3.71798,40.4372933,"'28015,ES,Madrid,Madrid,Calle de Isaac peral 22,Madrid'"
F402,-3.698415,40.4608716,"'28020,ES,Madrid,Madrid,Calle de Bravo murillo 291,Madrid'"
F403,-3.6629816,40.4882583,"'28050,ES,Madrid,Madrid,Calle de Oña 63B,Madrid'"
F404,-3.69561,40.4276216,"'28004,ES,Madrid,Madrid,Plaza de Alonso martínez 7,Madrid'"
F405,-3.7348283,40.406685,"'28011,ES,Madrid,Madrid,Calle de Santa aurea 13,Madrid'"
F406,-3.6863933,40.4009983,"'28045,ES,Madrid,Madrid,Calle de Méndez álvaro 32,Madrid'"
F407,-3.7106183,40.4237183,"'28015,ES,Madrid,Madrid,Calle de los Reyes 18,Madrid'"
F408,-3.702235,40.42424,"'28004,ES,Madrid,Madrid,Plaza de San ildefonso 5,Madrid'"
F409,-3.6510516,40.3820099,"'28018,ES,Madrid,Madrid,Avenida de Pablo neruda 114H,Madrid'"
F410,-3.686565,40.401685,"'28045,ES,Madrid,Madrid,Calle de Méndez álvaro 7,Madrid'"
F411,-3.710075,40.4237716,"'28015,ES,Madrid,Madrid,Calle de San ignacio de loyola 18,Madrid'"
F412,-3.7156566,40.3970916,"'28019,ES,Madrid,Madrid,Glorieta Marqués de vadillo 3,Madrid'"
F413,-3.6850616,40.4793633,"'28046,ES,Madrid,Madrid,Paseo de la Castellana 298,Madrid'"
F414,-3.6588016,40.4916666,"'28050,ES,Madrid,Madrid,Calle de la Princesa de éboli 3B,Madrid'"
F415,-3.7120983,40.414,"'28005,ES,Madrid,Madrid,Calle de Segovia 18,Madrid'"
F416,-3.6786249,40.4030466,"'28007,ES,Madrid,Madrid,Calle de León gil de palacio 1,Madrid'"
F417,-3.63738,40.41159,"'28030,ES,Madrid,Madrid,Calle de José bergamín 34,Madrid'"
F418,-3.7288383,40.4089333,"'28011,ES,Madrid,Madrid,Calle de Calatayud 8,Madrid'"
F419,-3.6354066,40.4023633,"'28030,ES,Madrid,Madrid,Calle de la Fuente carantona 14,Madrid'"
F420,-3.7007966,40.45754,"'28020,ES,Madrid,Madrid,Calle de San germán 72,Madrid'"
F421,-3.6823133,40.4766216,"'28046,ES,Madrid,Madrid,Calle de Mauricio legendre 38D,Madrid'"
F422,-3.7222783,40.421545,"'28008,ES,Madrid,Madrid,Calle de Aniceto marinas 18,Madrid'"
F423,-3.6583683,40.4137816,"'28030,ES,Madrid,Madrid,Avenida del Doctor garcía tapia 21,Madrid'"
F424,-3.65113,40.42619,"'28017,ES,Madrid,Madrid,Avenida del Marqués de corbera 54,Madrid'"
F425,-3.6933066,40.41859,"'28014,ES,Madrid,Madrid,Paseo del Prado 1,Madrid'"
F426,-3.6932383,40.4186099,"'28014,ES,Madrid,Madrid,Paseo del Prado 1,Madrid'"
F427,-3.7008933,40.4575066,"'28020,ES,Madrid,Madrid,Calle de San germán 74,Madrid'"
F428,-3.6820516,40.476905,"'28046,ES,Madrid,Madrid,Calle de Mauricio legendre 38D,Madrid'"
F429,-3.6823033,40.4766133,"'28046,ES,Madrid,Madrid,Calle de Mauricio legendre 38D,Madrid'"
F430,-3.6820933,40.4769333,"'28046,ES,Madrid,Madrid,Calle de Mauricio legendre 38D,Madrid'"
F431,-3.68216,40.47669,"'28046,ES,Madrid,Madrid,Calle de Mauricio legendre 38D,Madrid'"
F432,-3.6783433,40.4183383,"'28009,ES,Madrid,Madrid,Calle de Ibiza 2,Madrid'"
F433,-3.682095,40.47686,"'28046,ES,Madrid,Madrid,Calle de Mauricio legendre 38D,Madrid'"
F434,-3.682625,40.5016966,"'28034,ES,Madrid,Madrid,Calle de Antonio de cabezón 87,Madrid'"
F435,-3.6252066,40.4379266,"'28037,ES,Madrid,Madrid,Calle Albasánz 45,Madrid'"
F436,-3.6722516,40.4213616,"'28009,ES,Madrid,Madrid, Tunel de o'donnell ,Madrid'"
F437,-3.727435,40.4267316,"'28008,ES,Madrid,Madrid,Avenida de Valladolid 17,Madrid'"
F438,-3.6700283,40.5112766,"'28050,ES,Madrid,Madrid,Paseo de Tierra melide 38A,Madrid'"
F439,-3.66039,40.4620933,"'28033,ES,Madrid,Madrid,Calle Emilio rubín 11,Madrid'"
F440,-3.7152983,40.3988449,"'28019,ES,Madrid,Madrid,Nudo de Puente de toledo ,Madrid'"
F441,-3.68635,40.4009549,"'28045,ES,Madrid,Madrid,Calle de Méndez álvaro 32B,Madrid'"
F442,-3.6592116,40.4906066,"'28050,ES,Madrid,Madrid,Avenida de Francisco pi y margall 72,Madrid'"
F443,-3.7328,40.4324583,"'28008,ES,Madrid,Madrid,Avenida de Valladolid 77,Madrid'"
F444,-3.707705,40.4295933,"'28015,ES,Madrid,Madrid,Calle del Acuerdo 38,Madrid'"
F445,-3.7222783,40.4222466,"'28008,ES,Madrid,Madrid,Paseo de la Florida 25,Madrid'"
F446,-3.708125,40.3943616,"'28019,ES,Madrid,Madrid,Calle San delfín 9,Madrid'"
F447,-3.7131733,40.393805,"'28019,ES,Madrid,Madrid,Calle de Baleares 33,Madrid'"
F448,-3.7313649,40.3950916,"'28019,ES,Madrid,Madrid,Calle de Ervigio 32,Madrid'"
F449,-3.6952366,40.447915,"'28020,ES,Madrid,Madrid,Calle de Orense 6,Madrid'"
F450,-3.697565,40.4416433,"'28003,ES,Madrid,Madrid,Calle de Alonso cano 71,Madrid'"
F451,-3.705395,40.4361633,"'28015,ES,Madrid,Madrid,Calle Donoso cortés 7,Madrid'"
F452,-3.7334116,40.4285733,"'28008,ES,Madrid,Madrid,Paseo del Comandante fortea 56,Madrid'"
F453,-3.6690633,40.3981583,"'28038,ES,Madrid,Madrid,Avenida de la Albufera 1,Madrid'"
F454,-3.6625483,40.48878,"'28050,ES,Madrid,Madrid,Calle de Oña 103,Madrid'"
F455,-3.7060316,40.42841,"'28015,ES,Madrid,Madrid,Calle de San bernardo 82,Madrid'"
F456,-3.7175583,40.4642349,"'28039,ES,Madrid,Madrid,Calle de Artajona 14,Madrid'"
F457,-3.6960049,40.3833966,"'28026,ES,Madrid,Madrid,Calle de Antonio lópez 238,Madrid'"
F458,-3.7060233,40.4284166,"'28015,ES,Madrid,Madrid,Calle de San bernardo 82,Madrid'"
F459,-3.6565383,40.4142433,"'28030,ES,Madrid,Madrid,Calle del Alcalde garrido juaristi 6,Madrid'"
F460,-3.6934016,40.4187066,"'28014,ES,Madrid,Madrid,Paseo del Prado 1,Madrid'"
F461,-3.67492,40.444115,"'28002,ES,Madrid,Madrid,Plaza de la Prosperidad 2,Madrid'"
F462,-3.6580533,40.4476133,"'28043,ES,Madrid,Madrid,Calle de Treviana 1A,Madrid'"
F463,-3.6391083,40.4465083,"'28027,ES,Madrid,Madrid,Calle de Corumba 30,Madrid'"
F464,-3.7163483,40.3978066,"'28019,ES,Madrid,Madrid,Glorieta Marqués de vadillo 8,Madrid'"
F465,-3.7171966,40.4075333,"'28005,ES,Madrid,Madrid,Paseo Imperial 31,Madrid'"
F466,-3.67894,40.4030783,"'28007,ES,Madrid,Madrid,Calle de León gil de palacio 1,Madrid'"
F467,-3.6525166,40.4200883,"'28017,ES,Madrid,Madrid,Calle de Santa irene 3,Madrid'"
F468,-3.7081466,40.4411533,"'28003,ES,Madrid,Madrid,Avenida de Filipinas 34,Madrid'"
F469,-3.7203683,40.3898333,"'28019,ES,Madrid,Madrid,Calle de Alejandro sánchez 63,Madrid'"
F470,-3.66753,40.40622,"'28007,ES,Madrid,Madrid,Avenida del Mediterráneo 54,Madrid'"
F471,-3.6203466,40.4178366,"'28032,ES,Madrid,Madrid,Calle de Aquitania 7,Madrid'"
F472,-3.7205083,40.4047166,"'28005,ES,Madrid,Madrid,Paseo de los Melancólicos 43,Madrid'"
F473,-3.6662483,40.39413,"'28053,ES,Madrid,Madrid,Calle de Martínez de la riva 16,Madrid'"
F474,-3.69028,40.40739,"'28007,ES,Madrid,Madrid,Plaza del Embarcadero de atocha ,Madrid'"
F475,-3.731685,40.4280933,"'28008,ES,Madrid,Madrid,Calle de la Ribera del manzanares 115,Madrid'"
F476,-3.6876983,40.4240466,"'28001,ES,Madrid,Madrid,Calle de Jorge juan 3,Madrid'"
F477,-3.659625,40.4905533,"'28050,ES,Madrid,Madrid,Avenida de Francisco pi y margall 77,Madrid'"
F478,-3.6842616,40.4720883,"'28046,ES,Madrid,Madrid,Calle de Mauricio ravel 10,Madrid'"
F479,-3.72006,40.3907333,"'28019,ES,Madrid,Madrid,Calle de Belmonte de tajo 60,Madrid'"
F480,-3.7009216,40.411595,"'28012,ES,Madrid,Madrid,Calle del Olmo 10,Madrid'"
F481,-3.739135,40.4098383,"'28011,ES,Madrid,Madrid,Paseo de Extremadura 158,Madrid'"
F482,-3.7073716,40.4262533,"'28015,ES,Madrid,Madrid,Calle del Norte 13,Madrid'"
F483,-3.71322,40.4139083,"'28013,ES,Madrid,Madrid,Calle de Segovia 21,Madrid'"
F484,-3.6979683,40.4709933,"'28029,ES,Madrid,Madrid,Avenida de Asturias 55,Madrid'"
F485,-3.6934816,40.4155433,"'28014,ES,Madrid,Madrid,Plaza de Cánovas del castillo 2,Madrid'"
F486,-3.70166,40.4118533,"'28012,ES,Madrid,Madrid,Calle del Olivar 3,Madrid'"
F487,-3.6819716,40.4220516,"'28001,ES,Madrid,Madrid,Calle de Villanueva 43,Madrid'"
F488,-3.683355,40.4733933,"'28036,ES,Madrid,Madrid,Calle Malva ,Madrid'"
F489,-3.7043766,40.4098633,"'28012,ES,Madrid,Madrid,Calle del Oso 1,Madrid'"
F490,-3.6380016,40.4087783,"'28030,ES,Madrid,Madrid,Calle de Molina de segura 2,Madrid'"
F491,-3.6951416,40.418965,"'28014,ES,Madrid,Madrid,Calle de Alcalá 49,Madrid'"
F492,-3.6497,40.4641966,"'28043,ES,Madrid,Madrid,Calle de Agustín calvo 20,Madrid'"
F493,-3.6864733,40.4304783,"'28006,ES,Madrid,Madrid,Calle de José ortega y gasset 9,Madrid'"
F494,-3.6820416,40.4768933,"'28046,ES,Madrid,Madrid,Calle de Mauricio legendre 38D,Madrid'"
F495,-3.6820983,40.4769333,"'28046,ES,Madrid,Madrid,Calle de Mauricio legendre 38D,Madrid'"
F496,-3.6823766,40.4765633,"'28046,ES,Madrid,Madrid,Calle de Mauricio legendre 38D,Madrid'"
F497,-3.7020816,40.4249566,"'28004,ES,Madrid,Madrid,Calle del Espíritu santo 1,Madrid'"
F498,-3.682305,40.4765683,"'28046,ES,Madrid,Madrid,Calle de Mauricio legendre 38D,Madrid'"
F499,-3.6824116,40.4760866,"'28046,ES,Madrid,Madrid,Calle de Alaterno 4,Madrid'"
F500,-3.720095,40.3899666,"'28019,ES,Madrid,Madrid,Calle de Belmonte de tajo 76,Madrid'"
F501,-3.6839416,40.4718666,"'28036,ES,Madrid,Madrid,Calle de Agustín de foxá 40,Madrid'"
F502,-3.71819,40.4104516,"'28005,ES,Madrid,Madrid,Paseo Imperial 2,Madrid'"
F503,-3.7206833,40.4050633,"'28005,ES,Madrid,Madrid,Paseo de los Melancólicos 18,Madrid'"
F504,-3.6884899,40.5127966,"'28049,ES,Madrid,Madrid,Calle de Conventín de valdediós 4,Madrid'"
F505,-3.6310266,40.46353,"'28043,ES,Madrid,Madrid,Calle Ramón power 30,Madrid'"
F506,-3.65262,40.47064,"'28033,ES,Madrid,Madrid,Calle de Pinar del rey 2,Madrid'"
F507,-3.61941,40.41744,"'28032,ES,Madrid,Madrid,Calle Rávena 3,Madrid'"
F508,-3.6824783,40.4767016,"'28046,ES,Madrid,Madrid,Calle de Mauricio legendre 38D,Madrid'"
F509,-3.6779233,40.4571483,"'28016,ES,Madrid,Madrid,Calle de Bolivia 9,Madrid'"
F510,-3.68233,40.47701,"'28046,ES,Madrid,Madrid,Calle de Mauricio legendre 38D,Madrid'"
F511,-3.681955,40.42219,"'28001,ES,Madrid,Madrid,Calle de Villanueva 43,Madrid'"
F512,-3.6637366,40.4876883,"'28050,ES,Madrid,Madrid,Avenida de Manoteras 46B,Madrid'"
F513,-3.6822783,40.4768816,"'28046,ES,Madrid,Madrid,Calle de Mauricio legendre 38D,Madrid'"
F514,-3.70828,40.4203483,"'28013,ES,Madrid,Madrid,Plaza de Santo domingo 1,Madrid'"
F515,-3.6823516,40.4768183,"'28046,ES,Madrid,Madrid,Calle de Mauricio legendre 38D,Madrid'"
F516,-3.6511233,40.4063866,"'28030,ES,Madrid,Madrid,Calle del Arroyo de las pilillas 4,Madrid'"
F517,-3.7041383,40.4097366,"'28012,ES,Madrid,Madrid,Calle Mesón de paredes 42,Madrid'"
F518,-3.682545,40.4761616,"'28046,ES,Madrid,Madrid,Calle de Alaterno 4,Madrid'"
F519,-3.682325,40.47663,"'28046,ES,Madrid,Madrid,Calle de Mauricio legendre 38D,Madrid'"
F520,-3.7288066,40.4088383,"'28011,ES,Madrid,Madrid,Calle de Calatayud 8,Madrid'"
F521,-3.682505,40.47656,"'28046,ES,Madrid,Madrid,Calle de Mauricio legendre 38D,Madrid'"
F522,-3.7230933,40.4050499,"'28011,ES,Madrid,Madrid,Avenida del Manzanares 48,Madrid'"
F523,-3.698745,40.4124849,"'28014,ES,Madrid,Madrid,Calle del Amor de dios 17,Madrid'"
F524,-3.6551916,40.4106733,"'28030,ES,Madrid,Madrid,Calle del Camino de los vinateros 38B,Madrid'"
F525,-3.6580833,40.4075583,"'28030,ES,Madrid,Madrid,Plaza del Corregidor alonso de aguilar 5,Madrid'"
F526,-3.682415,40.4765466,"'28046,ES,Madrid,Madrid,Calle de Mauricio legendre 38D,Madrid'"
F527,-3.682095,40.4769366,"'28046,ES,Madrid,Madrid,Calle de Mauricio legendre 38D,Madrid'"
F528,-3.682485,40.47653,"'28046,ES,Madrid,Madrid,Calle de Mauricio legendre 38D,Madrid'"
F529,-3.67535,40.4324166,"'28006,ES,Madrid,Madrid,Calle de Juan bravo 53,Madrid'"
F530,-3.68404,40.4720433,"'28036,ES,Madrid,Madrid,Calle de Agustín de foxá 40,Madrid'"
F531,-3.68209,40.4769116,"'28046,ES,Madrid,Madrid,Calle de Mauricio legendre 38D,Madrid'"
F532,-3.6612416,40.4908,"'28050,ES,Madrid,Madrid,Calle de Ana de austria 19,Madrid'"
F533,-3.667095,40.5030466,"'28050,ES,Madrid,Madrid,Calle Valcarlos 33,Madrid'"
F534,-3.6711033,40.476255,"'28033,ES,Madrid,Madrid,Calle de Yerma 11,Madrid'"
F535,-3.6605033,40.4106016,"'28030,ES,Madrid,Madrid,Calle del Camino de los vinateros 10,Madrid'"
F536,-3.6826633,40.502035,"'28034,ES,Madrid,Madrid,Calle de Antonio de cabezón 89,Madrid'"
F537,-3.674135,40.4162283,"'28009,ES,Madrid,Madrid,Calle del Doce de octubre 23,Madrid'"
F538,-3.69545,40.4276783,"'28004,ES,Madrid,Madrid,Plaza de Alonso martínez 6,Madrid'"
F539,-3.7016816,40.424355,"'28004,ES,Madrid,Madrid,Calle de San joaquín 9,Madrid'"
F540,-3.61815,40.45688,"'28042,ES,Madrid,Madrid,Avenida de los Andes 50,Madrid'"
F541,-3.6091633,40.4490866,"'28022,ES,Madrid,Madrid,Calle de Alcalá 629,Madrid'"
F542,-3.6821866,40.47691,"'28046,ES,Madrid,Madrid,Calle de Mauricio legendre 38D,Madrid'"
F543,-3.6893699,40.488675,"'28034,ES,Madrid,Madrid,Calle de Manuel tovar 29,Madrid'"
F544,-3.6636233,40.48779,"'28050,ES,Madrid,Madrid,Avenida de Manoteras 46B,Madrid'"
F545,-3.68246,40.4767166,"'28046,ES,Madrid,Madrid,Calle de Mauricio legendre 38D,Madrid'"
F546,-3.678665,40.3937833,"'28045,ES,Madrid,Madrid,Calle de Ariel 4A,Madrid'"
F547,-3.6631616,40.4928283,"'28050,ES,Madrid,Madrid,Avenida de Francisco pi y margall 83,Madrid'"
F548,-3.68243,40.4767083,"'28046,ES,Madrid,Madrid,Calle de Mauricio legendre 38D,Madrid'"
F549,-3.7086316,40.4113116,"'28005,ES,Madrid,Madrid,Plaza de la Cebada 1,Madrid'"
F550,-3.68259,40.4765916,"'28046,ES,Madrid,Madrid,Calle de Mauricio legendre 38D,Madrid'"
F551,-3.7110733,40.3820066,"'28026,ES,Madrid,Madrid,Avenida de Rafaela ybarra 18,Madrid'"
F552,-3.69992,40.3832383,"'28026,ES,Madrid,Madrid,Calle de los Evangelios 1,Madrid'"
F553,-3.7071966,40.4094349,"'28005,ES,Madrid,Madrid,Calle de la Ribera de curtidores 9,Madrid'"
F554,-3.695605,40.4277383,"'28004,ES,Madrid,Madrid,Plaza de Alonso martínez 4,Madrid'"
F555,-3.700375,40.388955,"'28026,ES,Madrid,Madrid,Calle de Antonio lópez 164,Madrid'"
F556,-3.68223,40.476715,"'28046,ES,Madrid,Madrid,Calle de Mauricio legendre 38D,Madrid'"
F557,-3.6765449,40.4117566,"'28009,ES,Madrid,Madrid,Calle de la Anunciación 2,Madrid'"
F558,-3.7068866,40.4057883,"'28005,ES,Madrid,Madrid,Ronda de Toledo 20,Madrid'"
F559,-3.664635,40.396115,"'28038,ES,Madrid,Madrid,Calle del Puerto del suebe 2,Madrid'"
F560,-3.710385,40.4274716,"'28015,ES,Madrid,Madrid,Calle del Conde duque 26,Madrid'"
F561,-3.7033333,40.4534716,"'28039,ES,Madrid,Madrid,Calle de Navarra 1,Madrid'"
F562,-3.7007133,40.3819883,"'28026,ES,Madrid,Madrid,Calle del Cristo de la victoria 13,Madrid'"
F563,-3.6513783,40.4260933,"'28017,ES,Madrid,Madrid,Avenida del Marqués de corbera 50,Madrid'"
F564,-3.7037733,40.4145366,"'28012,ES,Madrid,Madrid,Plaza de Jacinto benavente 5,Madrid'"
F565,-3.72034,40.3944133,"'28019,ES,Madrid,Madrid,Calle de Sallaberry 6,Madrid'"
F566,-3.7094833,40.4161433,"'28013,ES,Madrid,Madrid, Costanilla de santiago 7,Madrid'"
F567,-3.6824066,40.4766599,"'28046,ES,Madrid,Madrid,Calle de Mauricio legendre 38D,Madrid'"
F568,-3.6704933,40.482235,"'28033,ES,Madrid,Madrid,Calle de Caleruega 88A,Madrid'"
F569,-3.680085,40.4001033,"'28045,ES,Madrid,Madrid,Calle de Leganés 6,Madrid'"
F570,-3.6823683,40.4767033,"'28046,ES,Madrid,Madrid,Calle de Mauricio legendre 38D,Madrid'"
F571,-3.6787466,40.5096216,"'28050,ES,Madrid,Madrid,Calle de Castiello de jaca 16,Madrid'"
F572,-3.68222,40.4768849,"'28046,ES,Madrid,Madrid,Calle de Mauricio legendre 38D,Madrid'"
F573,-3.6822933,40.4767883,"'28046,ES,Madrid,Madrid,Calle de Mauricio legendre 38D,Madrid'"
F574,-3.704985,40.3821216,"'28026,ES,Madrid,Madrid,Calle Nicolás usera 93,Madrid'"
F575,-3.7163849,40.398075,"'28019,ES,Madrid,Madrid,Glorieta Marqués de vadillo 8,Madrid'"
F576,-3.6730349,40.4372766,"'28028,ES,Madrid,Madrid,Calle Méjico 33,Madrid'"
F577,-3.7072466,40.4306666,"'28015,ES,Madrid,Madrid,Plaza del Conde del valle de suchil 8,Madrid'"
F578,-3.68253,40.4768833,"'28046,ES,Madrid,Madrid,Calle de Mauricio legendre 38D,Madrid'"
F579,-3.7313116,40.4271816,"'28008,ES,Madrid,Madrid,Calle de Santovenia 19B,Madrid'"
F580,-3.6511083,40.426215,"'28017,ES,Madrid,Madrid,Avenida del Marqués de corbera 54,Madrid'"
F581,-3.6408066,40.4768083,"'28033,ES,Madrid,Madrid,Calle de Santa virgilia 19,Madrid'"
F582,-3.682095,40.4769083,"'28046,ES,Madrid,Madrid,Calle de Mauricio legendre 38D,Madrid'"
F583,-3.68183,40.422025,"'28001,ES,Madrid,Madrid,Calle de Villanueva 43,Madrid'"
F584,-3.68191,40.4220983,"'28001,ES,Madrid,Madrid,Calle de Villanueva 43,Madrid'"
F585,-3.6512766,40.4259683,"'28017,ES,Madrid,Madrid,Avenida del Marqués de corbera 50,Madrid'"
F586,-3.6512516,40.4260666,"'28017,ES,Madrid,Madrid,Avenida del Marqués de corbera 52,Madrid'"
F587,-3.6825133,40.4767583,"'28046,ES,Madrid,Madrid,Calle de Mauricio legendre 38D,Madrid'"
F588,-3.653315,40.3870116,"'28018,ES,Madrid,Madrid,Avenida de las Palomeras 98,Madrid'"
F589,-3.675735,40.4245133,"'28009,ES,Madrid,Madrid,Calle de Narváez 1,Madrid'"
F590,-3.697715,40.4251666,"'28004,ES,Madrid,Madrid,Calle de Hortaleza 104,Madrid'"
F591,-3.6820583,40.47689,"'28046,ES,Madrid,Madrid,Calle de Mauricio legendre 38D,Madrid'"
F592,-3.6615649,40.4817816,"'28033,ES,Madrid,Madrid,Calle del Golfo de salónica 62,Madrid'"
F593,-3.6668166,40.4804516,"'28033,ES,Madrid,Madrid,Calle de Arturo soria 330,Madrid'"
F594,-3.6667849,40.4803833,"'28033,ES,Madrid,Madrid,Calle de Arturo soria 330,Madrid'"
F595,-3.69837,40.4148033,"'28014,ES,Madrid,Madrid,Calle León 1,Madrid'"
F596,-3.6681566,40.3960766,"'28053,ES,Madrid,Madrid,Calle de Peña gorbea 1,Madrid'"
F597,-3.7136966,40.446165,"'28040,ES,Madrid,Madrid,Calle de Beatriz de bobadilla 2,Madrid'"
F598,-3.6387016,40.4107883,"'28030,ES,Madrid,Madrid,Calle de José bergamín 22,Madrid'"
F599,-3.6704516,40.3887133,"'28053,ES,Madrid,Madrid,Avenida de San diego 27A,Madrid'"
F600,-3.6193933,40.4175066,"'28032,ES,Madrid,Madrid,Calle de Capri 20,Madrid'"
F601,-3.6824533,40.47668,"'28046,ES,Madrid,Madrid,Calle de Mauricio legendre 38D,Madrid'"
F602,-3.6823916,40.4767433,"'28046,ES,Madrid,Madrid,Calle de Mauricio legendre 38D,Madrid'"
F603,-3.7164066,40.398075,"'28019,ES,Madrid,Madrid,Glorieta Marqués de vadillo 8,Madrid'"
F604,-3.6824983,40.4767066,"'28046,ES,Madrid,Madrid,Calle de Mauricio legendre 38D,Madrid'"
F605,-3.6823283,40.4767033,"'28046,ES,Madrid,Madrid,Calle de Mauricio legendre 38D,Madrid'"
F606,-3.6823383,40.4766683,"'28046,ES,Madrid,Madrid,Calle de Mauricio legendre 38D,Madrid'"
F607,-3.694805,40.4262533,"'28004,ES,Madrid,Madrid,Calle de Justiniano 14,Madrid'"
F608,-3.7025383,40.4286366,"'28004,ES,Madrid,Madrid,Calle de Manuela malasaña 2,Madrid'"
F609,-3.6823983,40.4769683,"'28046,ES,Madrid,Madrid,Calle de Mauricio legendre 38D,Madrid'"
F610,-3.69406,40.3914783,"'28045,ES,Madrid,Madrid,Calle de Bolívar 5,Madrid'"
F611,-3.6888233,40.46638,"'28036,ES,Madrid,Madrid,Plaza de Castilla 8,Madrid'"
F612,-3.7154016,40.482915,"'28034,ES,Madrid,Madrid,Avenida del Cardenal herrera oria 205,Madrid'"
F613,-3.680085,40.4226199,"'28009,ES,Madrid,Madrid,Calle de Alcalá 74,Madrid'"
F614,-3.7004666,40.408095,"'28012,ES,Madrid,Madrid,Calle de Valencia 8,Madrid'"
F615,-3.70906,40.4113366,"'28005,ES,Madrid,Madrid,Plaza de la Cebada 3,Madrid'"
F616,-3.7172433,40.4801466,"'28035,ES,Madrid,Madrid,Calle de Fermín caballero 82,Madrid'"
F617,-3.6750783,40.3916666,"'28053,ES,Madrid,Madrid,Calle de Méndez álvaro 88,Madrid'"
F618,-3.7103116,40.4236783,"'28015,ES,Madrid,Madrid,Calle de los Reyes 23,Madrid'"
F619,-3.7220716,40.4220783,"'28008,ES,Madrid,Madrid,Paseo de la Florida 23,Madrid'"
F620,-3.6241966,40.4180399,"'28037,ES,Madrid,Madrid,Plaza de Alsacia ,Madrid'"
F621,-3.7141416,40.4108466,"'28005,ES,Madrid,Madrid,Plaza de San francisco 6,Madrid'"
F622,-3.7190716,40.4051916,"'28005,ES,Madrid,Madrid,Calle de Cobos de segovia 24,Madrid'"
F623,-3.7367766,40.4028883,"'28047,ES,Madrid,Madrid,Calle de Riocabado 2,Madrid'"
F624,-3.7004766,40.411535,"'28012,ES,Madrid,Madrid,Calle del Olmo 25,Madrid'"
F625,-3.6843016,40.4303583,"'28006,ES,Madrid,Madrid,Calle de José ortega y gasset 25B,Madrid'"
F626,-3.6820633,40.4769083,"'28046,ES,Madrid,Madrid,Calle de Mauricio legendre 38D,Madrid'"
F627,-3.6943483,40.4239033,"'28004,ES,Madrid,Madrid,Plaza de Salesas 7,Madrid'"
F628,-3.7008066,40.4084616,"'28012,ES,Madrid,Madrid,Calle de Argumosa 1,Madrid'"
F629,-3.6884583,40.4664916,"'28036,ES,Madrid,Madrid,Plaza de Castilla 8,Madrid'"
F630,-3.6971416,40.4630833,"'28039,ES,Madrid,Madrid,Calle de Azucenas 2,Madrid'"
F631,-3.7131583,40.4302883,"'28015,ES,Madrid,Madrid,Calle de Alberto aguilera 29,Madrid'"
F632,-3.6746633,40.4441649,"'28002,ES,Madrid,Madrid,Plaza de la Prosperidad 3,Madrid'"
F633,-3.7119083,40.455035,"'28039,ES,Madrid,Madrid,Calle de Numancia 25,Madrid'"
F634,-3.7176533,40.4137416,"'28005,ES,Madrid,Madrid,Calle de Segovia 45,Madrid'"
F635,-3.6845566,40.47109,"'28046,ES,Madrid,Madrid,Calle de Agustín de foxá 29,Madrid'"
F636,-3.7137833,40.4795233,"'28029,ES,Madrid,Madrid,Calle del Doctor ramón castroviejo 7,Madrid'"
F637,-3.6878333,40.3896966,"'28045,ES,Madrid,Madrid,Calle del Bronce 11,Madrid'"
F638,-3.7118416,40.4550716,"'28039,ES,Madrid,Madrid,Calle de Numancia 10,Madrid'"
F639,-3.7174333,40.433795,"'28015,ES,Madrid,Madrid,Calle del Arcipreste de hita 10,Madrid'"
F640,-3.71303,40.4494683,"'28040,ES,Madrid,Madrid,Calle de Almansa 95,Madrid'"
F641,-3.7031983,40.4693416,"'28029,ES,Madrid,Madrid,Calle Cantueso 101,Madrid'"
F642,-3.6753983,40.4241833,"'28009,ES,Madrid,Madrid,Avenida Felipe ii 5,Madrid'"
F643,-3.7161883,40.4261616,"'28008,ES,Madrid,Madrid,Calle de Juan álvarez mendizábal 40,Madrid'"
F644,-3.7030616,40.4654533,"'28039,ES,Madrid,Madrid,Calle de la Genciana 41,Madrid'"
F645,-3.726795,40.4426566,"'28040,ES,Madrid,Madrid,Plaza de Ramón y cajal 4,Madrid'"
F646,-3.68241,40.4767583,"'28046,ES,Madrid,Madrid,Calle de Mauricio legendre 38D,Madrid'"
F647,-3.71628,40.4389516,"'28003,ES,Madrid,Madrid,Calle Hilarión eslava 64,Madrid'"
F648,-3.6906433,40.4077483,"'28007,ES,Madrid,Madrid,Plaza del Embarcadero de atocha ,Madrid'"
F649,-3.6489983,40.3742966,"'28031,ES,Madrid,Madrid,Calle de Luis i 78,Madrid'"
F650,-3.68239,40.4768416,"'28046,ES,Madrid,Madrid,Calle de Mauricio legendre 38D,Madrid'"
F651,-3.7386866,40.4495916,"'28040,ES,Madrid,Madrid,Avenida de Puerta de hierro 3,Madrid'"
F652,-3.6626066,40.4875883,"'28050,ES,Madrid,Madrid,Calle de Oña 93,Madrid'"
F653,-3.7292933,40.4503883,"'28040,ES,Madrid,Madrid,Avenida Complutense ,Madrid'"
F654,-3.6824816,40.476705,"'28046,ES,Madrid,Madrid,Calle de Mauricio legendre 38D,Madrid'"
F655,-3.6821616,40.4768916,"'28046,ES,Madrid,Madrid,Calle de Mauricio legendre 38D,Madrid'"
F656,-3.682345,40.47661,"'28046,ES,Madrid,Madrid,Calle de Mauricio legendre 38D,Madrid'"
F657,-3.6823883,40.4767,"'28046,ES,Madrid,Madrid,Calle de Mauricio legendre 38D,Madrid'"
F658,-3.679785,40.4209866,"'28009,ES,Madrid,Madrid,Avenida de Menéndez pelayo 11,Madrid'"
F659,-3.682445,40.4767933,"'28046,ES,Madrid,Madrid,Calle de Mauricio legendre 38D,Madrid'"
F660,-3.6823033,40.4766783,"'28046,ES,Madrid,Madrid,Calle de Mauricio legendre 38D,Madrid'"
F661,-3.6975433,40.39286,"'28045,ES,Madrid,Madrid,Paseo de la Chopera 51,Madrid'"
F662,-3.6555266,40.4229466,"'28017,ES,Madrid,Madrid,Avenida del Marqués de corbera 12,Madrid'"
F663,-3.663925,40.4188416,"'28007,ES,Madrid,Madrid,Calle Marqués de lozoya 29B,Madrid'"
F664,-3.634605,40.46451,"'28043,ES,Madrid,Madrid,Calle de Mota del cuervo 12,Madrid'"
F665,-3.68229,40.4768233,"'28046,ES,Madrid,Madrid,Calle de Mauricio legendre 38D,Madrid'"
F666,-3.659365,40.4910133,"'28050,ES,Madrid,Madrid,Calle de la Princesa de éboli 1,Madrid'"
F667,-3.7008233,40.4112866,"'28012,ES,Madrid,Madrid,Calle del Olmo 15,Madrid'"
F668,-3.7302233,40.4279933,"'28008,ES,Madrid,Madrid,Pasarela de Almuñecar ,Madrid'"
F669,-3.6834549,40.4810766,"'28046,ES,Madrid,Madrid,Calle Olivar 42,Madrid'"
F670,-3.6824766,40.4766666,"'28046,ES,Madrid,Madrid,Calle de Mauricio legendre 38D,Madrid'"
F671,-3.6482783,40.433095,"'28027,ES,Madrid,Madrid,Calle de Alcalá 316,Madrid'"
F672,-3.682695,40.4766966,"'28046,ES,Madrid,Madrid,Calle de Mauricio legendre 38D,Madrid'"
F673,-3.7129166,40.4235766,"'28008,ES,Madrid,Madrid,Plaza de España 16,Madrid'"
F674,-3.7050416,40.3919499,"'28026,ES,Madrid,Madrid,Calle del Torero 4,Madrid'"
F675,-3.700065,40.3888833,"'28026,ES,Madrid,Madrid,Calle de Antonio lópez 168,Madrid'"
F676,-3.7083049,40.4203866,"'28013,ES,Madrid,Madrid,Plaza de Santo domingo 1,Madrid'"
F677,-3.7004333,40.3887316,"'28026,ES,Madrid,Madrid,Calle de Antonio lópez 166,Madrid'"
F678,-3.682535,40.4769966,"'28046,ES,Madrid,Madrid,Calle de Mauricio legendre 38D,Madrid'"
F679,-3.6935233,40.4085783,"'28012,ES,Madrid,Madrid,Calle del Doctor drumen 7,Madrid'"
F680,-3.682445,40.4767449,"'28046,ES,Madrid,Madrid,Calle de Mauricio legendre 38D,Madrid'"
F681,-3.6383,40.42754,"'28017,ES,Madrid,Madrid,Calle de Emilio ferrari 116,Madrid'"
F682,-3.74537,40.4086933,"'28011,ES,Madrid,Madrid,Calle de Santa cecilia 7,Madrid'"
F683,-3.68804,40.4063366,"'28014,ES,Madrid,Madrid,Paseo de la Infanta isabel 2,Madrid'"
F684,-3.682435,40.476785,"'28046,ES,Madrid,Madrid,Calle de Mauricio legendre 38D,Madrid'"
F685,-3.6799683,40.3911833,"'28045,ES,Madrid,Madrid,Calle Titán 13,Madrid'"
F686,-3.67542,40.4240983,"'28009,ES,Madrid,Madrid,Avenida Felipe ii 5,Madrid'"
F687,-3.6592666,40.4126916,"'28030,ES,Madrid,Madrid,Calle de Manuel machado 16B,Madrid'"
F688,-3.6625983,40.4875366,"'28050,ES,Madrid,Madrid,Calle de Oña 93,Madrid'"
F689,-3.682425,40.4768716,"'28046,ES,Madrid,Madrid,Calle de Mauricio legendre 38D,Madrid'"
F690,-3.715605,40.4224616,"'28008,ES,Madrid,Madrid,Calle de Cadarso 21,Madrid'"
F691,-3.674095,40.4261849,"'28006,ES,Madrid,Madrid,Calle de Alcántara 4,Madrid'"
F692,-3.690905,40.4744099,"'28029,ES,Madrid,Madrid,Calle de Sinesio delgado 4,Madrid'"
F693,-3.71714,40.4075283,"'28005,ES,Madrid,Madrid,Paseo Imperial 31,Madrid'"
F694,-3.6896116,40.47464,"'28029,ES,Madrid,Madrid,Anillo Distribuidor cuatro torres ,Madrid'"
F695,-3.6823083,40.4770583,"'28046,ES,Madrid,Madrid,Calle de Mauricio legendre 38D,Madrid'"
F696,-3.5946616,40.4507566,"'28042,ES,Madrid,Madrid,Calle de Obenque 1,Madrid'"
F697,-3.7176033,40.4137383,"'28005,ES,Madrid,Madrid,Calle de Segovia 45,Madrid'"
F698,-3.6823916,40.47675,"'28046,ES,Madrid,Madrid,Calle de Mauricio legendre 38D,Madrid'"
F699,-3.68019,40.4228066,"'28009,ES,Madrid,Madrid,Calle de Alcalá 74,Madrid'"
F700,-3.7019316,40.424335,"'28004,ES,Madrid,Madrid,Plaza de San ildefonso 6,Madrid'"
F701,-3.71607,40.42391,"'28008,ES,Madrid,Madrid,Calle Profesor martín almagro basch ,Madrid'"
F702,-3.701705,40.417285,"'28014,ES,Madrid,Madrid,Calle de Alcalá 6,Madrid'"
F703,-3.68225,40.4767766,"'28046,ES,Madrid,Madrid,Calle de Mauricio legendre 38D,Madrid'"
F704,-3.68209,40.4768816,"'28046,ES,Madrid,Madrid,Calle de Mauricio legendre 38D,Madrid'"
F705,-3.6826,40.4764666,"'28046,ES,Madrid,Madrid,Calle de Mauricio legendre 38D,Madrid'"
F706,-3.6821316,40.47539,"'28046,ES,Madrid,Madrid,Calle de Alaterno 4,Madrid'"
F707,-3.68228,40.4771099,"'28046,ES,Madrid,Madrid,Calle de Mauricio legendre 38D,Madrid'"
F708,-3.682295,40.4765966,"'28046,ES,Madrid,Madrid,Calle de Mauricio legendre 38D,Madrid'"
F709,-3.6594616,40.4907783,"'28050,ES,Madrid,Madrid,Avenida de Francisco pi y margall 77,Madrid'"
F710,-3.6983466,40.401835,"'28045,ES,Madrid,Madrid,Paseo de Santa maría de la cabeza 51,Madrid'"
F711,-3.702675,40.4101833,"'28012,ES,Madrid,Madrid,Calle de Jesús y maría 36,Madrid'"
F712,-3.669955,40.5112533,"'28050,ES,Madrid,Madrid,Paseo de Tierra melide 38A,Madrid'"
F713,-3.661995,40.487985,"'28050,ES,Madrid,Madrid,Calle de Oña 131,Madrid'"
F714,-3.68218,40.481855,"'28046,ES,Madrid,Madrid,Calle Olivar 42,Madrid'"
F715,-3.7073283,40.4302516,"'28015,ES,Madrid,Madrid,Plaza del Conde del valle de suchil 2,Madrid'"
F716,-3.6824616,40.4767983,"'28046,ES,Madrid,Madrid,Calle de Mauricio legendre 38D,Madrid'"
F717,-3.72955,40.4896016,"'28035,ES,Madrid,Madrid,Calle de María de maeztu 34,Madrid'"
F718,-3.68192,40.422095,"'28001,ES,Madrid,Madrid,Calle de Villanueva 43,Madrid'"
F719,-3.703705,40.4267066,"'28004,ES,Madrid,Madrid,Calle de San andrés 14,Madrid'"
F720,-3.6571066,40.4439249,"'28027,ES,Madrid,Madrid,Calle Albacete 10,Madrid'"
F721,-3.69946,40.4311283,"'28010,ES,Madrid,Madrid,Calle de Luchana 26,Madrid'"
F722,-3.6179483,40.4294033,"'28037,ES,Madrid,Madrid,Calle de Alberique 12,Madrid'"
F723,-3.6769883,40.413185,"'28009,ES,Madrid,Madrid,Paseo de Fernán núñez 16E,Madrid'"
F724,-3.6569333,40.443485,"'28027,ES,Madrid,Madrid,Calle de la Condesa de venadito 2,Madrid'"
F725,-3.7248766,40.4327416,"'28008,ES,Madrid,Madrid,Paseo de Moret 11,Madrid'"
F726,-3.70294,40.4123933,"'28012,ES,Madrid,Madrid,Calle de la Magdalena 4,Madrid'"
F727,-3.68257,40.476755,"'28046,ES,Madrid,Madrid,Calle de Mauricio legendre 38D,Madrid'"
F728,-3.7007833,40.4081516,"'28012,ES,Madrid,Madrid,Calle de Valencia 4,Madrid'"
F729,-3.7498133,40.4019466,"'28047,ES,Madrid,Madrid,Calle de Monsalupe 2,Madrid'"
F730,-3.7080399,40.4201266,"'28013,ES,Madrid,Madrid,Calle de Jacometrezo 10,Madrid'"
F731,-3.7046583,40.4337699,"'28015,ES,Madrid,Madrid,Glorieta de Quevedo 5,Madrid'"
F732,-3.6979983,40.4464849,"'28003,ES,Madrid,Madrid,Calle de Raimundo fernández villaverde 43,Madrid'"
F733,-3.6645866,40.3960949,"'28038,ES,Madrid,Madrid,Calle del Puerto del suebe 2,Madrid'"
F734,-3.6712299,40.4820433,"'28033,ES,Madrid,Madrid,Calle de Caleruega 63,Madrid'"
F735,-3.7002833,40.4265916,"'28004,ES,Madrid,Madrid,Calle de Barceló 7,Madrid'"
F736,-3.6824633,40.47676,"'28046,ES,Madrid,Madrid,Calle de Mauricio legendre 38D,Madrid'"
F737,-3.6765933,40.4572466,"'28016,ES,Madrid,Madrid,Calle de Colombia 8,Madrid'"
F738,-3.6822216,40.476565,"'28046,ES,Madrid,Madrid,Calle de Mauricio legendre 38D,Madrid'"
F739,-3.717435,40.4279399,"'28008,ES,Madrid,Madrid,Calle de la Quintana 16,Madrid'"
F740,-3.6823766,40.47671,"'28046,ES,Madrid,Madrid,Calle de Mauricio legendre 38D,Madrid'"
F741,-3.697565,40.4251616,"'28004,ES,Madrid,Madrid,Calle de Hortaleza 75,Madrid'"
F742,-3.70281,40.3918116,"'28026,ES,Madrid,Madrid,Calle de Eugenio caxes 14,Madrid'"
F743,-3.6995699,40.4306549,"'28010,ES,Madrid,Madrid,Calle de Manuel cortina 2,Madrid'"
F744,-3.6821383,40.4769333,"'28046,ES,Madrid,Madrid,Calle de Mauricio legendre 38D,Madrid'"
F745,-3.6646816,40.4877199,"'28050,ES,Madrid,Madrid,Avenida de Manoteras 46,Madrid'"
F746,-3.6824283,40.476665,"'28046,ES,Madrid,Madrid,Calle de Mauricio legendre 38D,Madrid'"
F747,-3.6508266,40.4244816,"'28017,ES,Madrid,Madrid,Calle de Nuestra señora del villar 85,Madrid'"
F748,-3.6699783,40.4822316,"'28033,ES,Madrid,Madrid,Calle de Caleruega 66,Madrid'"
F749,-3.71371,40.4460466,"'28003,ES,Madrid,Madrid,Avenida de la Reina victoria 68,Madrid'"
F750,-3.7039066,40.4386783,"'28003,ES,Madrid,Madrid,Calle de José abascal 2,Madrid'"
F751,-3.6524683,40.4914966,"'28050,ES,Madrid,Madrid,Calle del Príncipe carlos 36,Madrid'"
F752,-3.6824783,40.4772566,"'28046,ES,Madrid,Madrid,Calle de Mauricio legendre 38D,Madrid'"
F753,-3.6570633,40.4298366,"'28017,ES,Madrid,Madrid,Calle de Cyesa 15,Madrid'"
F754,-3.67137,40.4668833,"'28016,ES,Madrid,Madrid,Calle del Cardenal marcelo spínola 4,Madrid'"
F755,-3.668205,40.4602133,"'28016,ES,Madrid,Madrid,Calle de Federico salmón 1,Madrid'"
F756,-3.6681799,40.4603416,"'28016,ES,Madrid,Madrid,Calle de Federico salmón 3,Madrid'"
F757,-3.6699283,40.511325,"'28050,ES,Madrid,Madrid,Paseo de Tierra melide 38A,Madrid'"
F758,-3.6369633,40.4086616,"'28030,ES,Madrid,Madrid,Avenida del Doctor garcía tapia 137,Madrid'"
F759,-3.7421516,40.4057616,"'28011,ES,Madrid,Madrid,Calle de la Huerta de castañeda 30,Madrid'"
F760,-3.64298,40.385375,"'28018,ES,Madrid,Madrid,Calle de Gerardo diego 9,Madrid'"
F761,-3.620025,40.4180249,"'28032,ES,Madrid,Madrid,Calle de Aquitania 9,Madrid'"
F762,-3.6577066,40.4158299,"'28030,ES,Madrid,Madrid,Calle de Félix rodríguez de la fuente 33,Madrid'"
F763,-3.7349116,40.4329683,"'28008,ES,Madrid,Madrid,Calle de Aniceto marinas 116,Madrid'"
F764,-3.703995,40.4200966,"'28013,ES,Madrid,Madrid,Calle Gran vía 32B,Madrid'"
F765,-3.6408766,40.4767566,"'28033,ES,Madrid,Madrid,Calle de Santa virgilia 19,Madrid'"
F766,-3.7042383,40.4417216,"'28003,ES,Madrid,Madrid,Calle de Bravo murillo 55,Madrid'"
F767,-3.6825633,40.4765316,"'28046,ES,Madrid,Madrid,Calle de Mauricio legendre 38D,Madrid'"
F768,-3.641065,40.42968,"'28017,ES,Madrid,Madrid,Calle de Gutierre de cetina 77,Madrid'"
F769,-3.7068166,40.4107933,"'28012,ES,Madrid,Madrid,Plaza de Cascorro 5,Madrid'"
F770,-3.6824633,40.476845,"'28046,ES,Madrid,Madrid,Calle de Mauricio legendre 38D,Madrid'"
F771,-3.6565883,40.436015,"'28027,ES,Madrid,Madrid,Calle de la Virgen de lourdes 34,Madrid'"
F772,-3.690625,40.4491166,"'28046,ES,Madrid,Madrid,Paseo de la Castellana 124,Madrid'"
F773,-3.6592766,40.4971566,"'28050,ES,Madrid,Madrid,Calle Margarita de parma 1,Madrid'"
F774,-3.6823633,40.476685,"'28046,ES,Madrid,Madrid,Calle de Mauricio legendre 38D,Madrid'"
F775,-3.6573333,40.4103833,"'28030,ES,Madrid,Madrid,Calle del Camino de los vinateros 28,Madrid'"
F776,-3.6828416,40.5019916,"'28034,ES,Madrid,Madrid,Calle de Antonio de cabezón 89,Madrid'"
F777,-3.700855,40.4115833,"'28012,ES,Madrid,Madrid,Calle del Olmo 15,Madrid'"
F778,-3.7008066,40.41149,"'28012,ES,Madrid,Madrid,Calle del Olmo 17,Madrid'"
F779,-3.70084,40.4114833,"'28012,ES,Madrid,Madrid,Calle del Olmo 15,Madrid'"
F780,-3.6467983,40.408445,"'28030,ES,Madrid,Madrid,Calle del Camino de los vinateros 108,Madrid'"
F781,-3.6645266,40.5054583,"'28050,ES,Madrid,Madrid,Calle Palas de rey 16,Madrid'"
F782,-3.6646066,40.50546,"'28050,ES,Madrid,Madrid,Calle Palas de rey 16,Madrid'"
F783,-3.6188483,40.4412333,"'28037,ES,Madrid,Madrid,Calle Cronos 65,Madrid'"
F784,-3.6702383,40.4020566,"'28007,ES,Madrid,Madrid,Calle de Valderribas 72,Madrid'"
F785,-3.73041,40.4281016,"'28008,ES,Madrid,Madrid,Calle de Aniceto marinas 98,Madrid'"
F786,-3.6667683,40.4078066,"'28007,ES,Madrid,Madrid,Calle de Piscis 2B,Madrid'"
F787,-3.71084,40.4825866,"'28034,ES,Madrid,Madrid,Calle de Fermín caballero 61,Madrid'"
F788,-3.7059633,40.4811583,"'28029,ES,Madrid,Madrid,Paseo de la Vaguada 1,Madrid'"
F789,-3.6574433,40.4291133,"'28017,ES,Madrid,Madrid,Calle de Ignacio ellacuria 3,Madrid'"
F790,-3.6864733,40.40103,"'28045,ES,Madrid,Madrid,Calle de Méndez álvaro 32,Madrid'"
F791,-3.6830183,40.4762533,"'28046,ES,Madrid,Madrid,Calle de Mauricio legendre 38D,Madrid'"
F792,-3.6823816,40.47662,"'28046,ES,Madrid,Madrid,Calle de Mauricio legendre 38D,Madrid'"
F793,-3.682125,40.4768949,"'28046,ES,Madrid,Madrid,Calle de Mauricio legendre 38D,Madrid'"
F794,-3.723275,40.4112416,"'28011,ES,Madrid,Madrid,Paseo de la Ermita del santo 16,Madrid'"
F795,-3.67974,40.42106,"'28009,ES,Madrid,Madrid,Avenida de Menéndez pelayo 9,Madrid'"
F796,-3.69256,40.4415749,"'28003,ES,Madrid,Madrid,Plaza de San juan de la cruz 11,Madrid'"
F797,-3.7090816,40.4525266,"'28039,ES,Madrid,Madrid,Calle Jerónima llorente 74,Madrid'"
F798,-3.6530166,40.4433383,"'28027,ES,Madrid,Madrid,Plaza de Nueva orleans ,Madrid'"
F799,-3.74569,40.4011049,"'28047,ES,Madrid,Madrid,Calle de Gregorio vacas 7,Madrid'"
F800,-3.686325,40.4267633,"'28001,ES,Madrid,Madrid,Calle de Claudio coello 51,Madrid'"
F801,-3.6462116,40.4361316,"'28027,ES,Madrid,Madrid,Calle de Federico gutiérrez 23,Madrid'"
F802,-3.6705133,40.4822333,"'28033,ES,Madrid,Madrid,Calle de Caleruega 88A,Madrid'"
F803,-3.7171883,40.480185,"'28035,ES,Madrid,Madrid,Calle de Fermín caballero 82,Madrid'"
F804,-3.5913833,40.4047233,"'28032,ES,Madrid,Madrid,Carretera de Vicálvaro a la estac. o'donnell 11,Madrid'"
F805,-3.6955983,40.3798183,"'28041,ES,Madrid,Madrid,Calle de Antonio lópez 254B,Madrid'"
F806,-3.731205,40.39478,"'28019,ES,Madrid,Madrid,Calle de Amalarico 36,Madrid'"
F807,-3.7233833,40.4118233,"'28011,ES,Madrid,Madrid,Paseo de la Ermita del santo 14,Madrid'"
F808,-3.6639483,40.4189383,"'28007,ES,Madrid,Madrid,Calle Marqués de lozoya 29B,Madrid'"
F809,-3.7109666,40.4579533,"'28039,ES,Madrid,Madrid,Calle de Ofelia nieto 2,Madrid'"
F810,-3.6389983,40.4465083,"'28027,ES,Madrid,Madrid,Calle de Corumba 30,Madrid'"
F811,-3.64461,40.4401333,"'28027,ES,Madrid,Madrid,Calle del Sol naciente 26,Madrid'"
F812,-3.7316516,40.4280633,"'28008,ES,Madrid,Madrid,Calle de la Ribera del manzanares 115,Madrid'"
F813,-3.65132,40.4905083,"'28050,ES,Madrid,Madrid,Calle del Príncipe carlos 34,Madrid'"
F814,-3.652715,40.4912016,"'28050,ES,Madrid,Madrid,Calle del Príncipe carlos 36,Madrid'"
F815,-3.65816,40.426105,"'28017,ES,Madrid,Madrid,Calle Ricardo ortiz 44B,Madrid'"
F816,-3.6671916,40.4801266,"'28033,ES,Madrid,Madrid,Calle de Arturo soria 331,Madrid'"
F817,-3.675185,40.4440783,"'28002,ES,Madrid,Madrid,Plaza de la Prosperidad 2,Madrid'"
F818,-3.6858466,40.4129516,"'28009,ES,Madrid,Madrid,Plaza Independencia ,Madrid'"
F819,-3.7209233,40.4599316,"'28035,ES,Madrid,Madrid,Paseo de Andrés bello ,Madrid'"
F820,-3.688505,40.4756683,"'28029,ES,Madrid,Madrid,Anillo Distribuidor cuatro torres ,Madrid'"
F821,-3.660435,40.4108183,"'28030,ES,Madrid,Madrid,Calle del Camino de los vinateros 1,Madrid'"
F822,-3.6528,40.4913466,"'28050,ES,Madrid,Madrid,Avenida del Ingeniero emilio herrera 17,Madrid'"
F823,-3.727165,40.4910116,"'28035,ES,Madrid,Madrid,Calle de María de maeztu 62,Madrid'"
F824,-3.677885,40.41518,"'28009,ES,Madrid,Madrid,Avenida de Menéndez pelayo 63,Madrid'"
F825,-3.69569,40.4203116,"'28004,ES,Madrid,Madrid,Calle de Barquillo 8,Madrid'"
F826,-3.7000783,40.4264949,"'28004,ES,Madrid,Madrid,Calle de Barceló 7,Madrid'"
F827,-3.682415,40.4766016,"'28046,ES,Madrid,Madrid,Calle de Mauricio legendre 38D,Madrid'"
F828,-3.6821583,40.4777316,"'28046,ES,Madrid,Madrid,Calle de Mauricio legendre 59,Madrid'"
F829,-3.6824866,40.4766516,"'28046,ES,Madrid,Madrid,Calle de Mauricio legendre 38D,Madrid'"
F830,-3.7234866,40.4217516,"'28008,ES,Madrid,Madrid,Calle de la Ribera del manzanares ,Madrid'"
F831,-3.6938183,40.5115616,"'28049,ES,Madrid,Madrid,Avenida del Santuario de valverde 71,Madrid'"
F832,-3.68246,40.47662,"'28046,ES,Madrid,Madrid,Calle de Mauricio legendre 38D,Madrid'"
F833,-3.6086416,40.4934116,"'28055,ES,Madrid,Madrid,Calle de Jordi solé tura 20,Madrid'"
F834,-3.7062433,40.4283866,"'28015,ES,Madrid,Madrid,Calle de San bernardo 85,Madrid'"
F835,-3.733645,40.431055,"'28008,ES,Madrid,Madrid,Calle de Loeches 8,Madrid'"
F836,-3.7000666,40.4128883,"'28012,ES,Madrid,Madrid,Calle de Atocha 40,Madrid'"
F837,-3.6550016,40.4899183,"'28050,ES,Madrid,Madrid,Calle de la Princesa de éboli 29,Madrid'"
F838,-3.68177,40.476765,"'28046,ES,Madrid,Madrid,Calle de Mauricio legendre 38D,Madrid'"
F839,-3.7346116,40.4190033,"'28011,ES,Madrid,Madrid,Paseo de María teresa 14,Madrid'"
F840,-3.7052266,40.4215666,"'28004,ES,Madrid,Madrid,Calle de la Luna 4,Madrid'"
F841,-3.6684916,40.4592316,"'28016,ES,Madrid,Madrid,Plaza de José maría soler 7,Madrid'"
F842,-3.6702466,40.482,"'28033,ES,Madrid,Madrid,Calle de Caleruega 66,Madrid'"
F843,-3.6571466,40.4856849,"'28050,ES,Madrid,Madrid, V.c. sanchinarro ,Madrid'"
F844,-3.731115,40.48699,"'28035,ES,Madrid,Madrid,Calle de Irene caba alba 2,Madrid'"
F845,-3.7291383,40.4263316,"'28008,ES,Madrid,Madrid,Calle de la Ribera del manzanares 95,Madrid'"
F846,-3.70086,40.457375,"'28020,ES,Madrid,Madrid,Calle de San germán 72,Madrid'"
F847,-3.6363166,40.44661,"'28027,ES,Madrid,Madrid,Calle de Belice 19,Madrid'"
F848,-3.63906,40.4465583,"'28027,ES,Madrid,Madrid,Calle de Corumba 30,Madrid'"
F849,-3.6764033,40.4611883,"'28016,ES,Madrid,Madrid,Avenida de Pío xii 7,Madrid'"
F850,-3.6826233,40.47691,"'28046,ES,Madrid,Madrid,Calle de Mauricio legendre 38D,Madrid'"
F851,-3.7290166,40.41416,"'28011,ES,Madrid,Madrid,Plaza de la Puerta del ángel 3,Madrid'"
F852,-3.66665,40.480405,"'28033,ES,Madrid,Madrid,Calle de Arturo soria 330,Madrid'"
F853,-3.7089366,40.4241866,"'28015,ES,Madrid,Madrid,Calle del Álamo 9,Madrid'"
F854,-3.7065533,40.4101383,"'28012,ES,Madrid,Madrid,Calle de Embajadores 12,Madrid'"
F855,-3.6530083,40.4431166,"'28027,ES,Madrid,Madrid,Avenida de Badajoz 13,Madrid'"
F856,-3.6824316,40.4772416,"'28046,ES,Madrid,Madrid,Calle de Mauricio legendre 38D,Madrid'"
F857,-3.6870633,40.4124433,"'28009,ES,Madrid,Madrid,Plaza Independencia ,Madrid'"
F858,-3.6823799,40.4765716,"'28046,ES,Madrid,Madrid,Calle de Mauricio legendre 38D,Madrid'"
F859,-3.6548933,40.4899033,"'28050,ES,Madrid,Madrid,Avenida del Ingeniero emilio herrera 54,Madrid'"
F860,-3.7059333,40.4286016,"'28015,ES,Madrid,Madrid,Calle de San bernardo 89,Madrid'"
F861,-3.68197,40.5109116,"'28050,ES,Madrid,Madrid,Carretera de Fuencarral a alcobendas 2,Madrid'"
F862,-3.7198683,40.3926533,"'28019,ES,Madrid,Madrid,Calle de Belmonte de tajo 24,Madrid'"
F863,-3.6822133,40.4769116,"'28046,ES,Madrid,Madrid,Calle de Mauricio legendre 38D,Madrid'"
F864,-3.6821133,40.4768833,"'28046,ES,Madrid,Madrid,Calle de Mauricio legendre 38D,Madrid'"
F865,-3.6820883,40.4768583,"'28046,ES,Madrid,Madrid,Calle de Mauricio legendre 38D,Madrid'"
F866,-3.6822216,40.4769366,"'28046,ES,Madrid,Madrid,Calle de Mauricio legendre 38D,Madrid'"
F867,-3.6511533,40.4496816,"'28043,ES,Madrid,Madrid,Calle de Arturo soria 126,Madrid'"
F868,-3.6304683,40.43609,"'28037,ES,Madrid,Madrid,Calle Santa leonor 40,Madrid'"
F869,-3.6642783,40.4299566,"'28028,ES,Madrid,Madrid,Calle de Bocángel 1,Madrid'"
F870,-3.629775,40.4290783,"'28037,ES,Madrid,Madrid,Calle de Mieres 16,Madrid'"
F871,-3.6363466,40.4467066,"'28027,ES,Madrid,Madrid,Calle de Belice 40,Madrid'"
F872,-3.644605,40.3892783,"'28038,ES,Madrid,Madrid,Avenida de la Albufera 252,Madrid'"
F873,-3.7049583,40.4420483,"'28003,ES,Madrid,Madrid,Avenida de Filipinas 11,Madrid'"
F874,-3.682405,40.4767366,"'28046,ES,Madrid,Madrid,Calle de Mauricio legendre 38D,Madrid'"
F875,-3.7059466,40.417205,"'28013,ES,Madrid,Madrid,Calle del Maestro victoria 3,Madrid'"
F876,-3.644645,40.4399766,"'28027,ES,Madrid,Madrid,Calle de José del hierro 48,Madrid'"
F877,-3.6822983,40.4769433,"'28046,ES,Madrid,Madrid,Calle de Mauricio legendre 38D,Madrid'"
F878,-3.7307266,40.4283633,"'28008,ES,Madrid,Madrid,Calle de Aniceto marinas 100,Madrid'"
F879,-3.693485,40.400755,"'28045,ES,Madrid,Madrid,Calle de Bustamante 3,Madrid'"
F880,-3.6431916,40.4406449,"'28027,ES,Madrid,Madrid,Calle de Ángel larra 2,Madrid'"
F881,-3.7140783,40.5003366,"'28049,ES,Madrid,Madrid,Calle Monasterio de el paular 2D,Madrid'"
F882,-3.6997066,40.4192116,"'28013,ES,Madrid,Madrid,Calle de la Virgen de los peligros 13,Madrid'"
F883,-3.6923666,40.4255466,"'28004,ES,Madrid,Madrid,Calle de Orellana 27,Madrid'"
F884,-3.72951,40.4288549,"'28008,ES,Madrid,Madrid,Avenida de Valladolid 43,Madrid'"
F885,-3.6884116,40.4217883,"'28001,ES,Madrid,Madrid,Calle de Serrano 7,Madrid'"
F886,-3.6255116,40.4379866,"'28037,ES,Madrid,Madrid,Calle Albasánz 43,Madrid'"
F887,-3.6739266,40.4007016,"'28007,ES,Madrid,Madrid,Avenida de la Ciudad de barcelona 83,Madrid'"
F888,-3.6812216,40.428325,"'28001,ES,Madrid,Madrid,Calle de Castelló 61,Madrid'"
F889,-3.6509149,40.3815649,"'28018,ES,Madrid,Madrid,Avenida de Pablo neruda 69,Madrid'"
F890,-3.6751299,40.421575,"'28009,ES,Madrid,Madrid,Calle de Fernán gonzález 30,Madrid'"
F891,-3.630565,40.4356849,"'28037,ES,Madrid,Madrid,Calle Santa leonor 48,Madrid'"
F892,-3.6973466,40.5074566,"'28049,ES,Madrid,Madrid,Avenida del Santuario de valverde 68,Madrid'"
F893,-3.6578683,40.4072783,"'28030,ES,Madrid,Madrid,Plaza del Corregidor alonso de aguilar 5,Madrid'"
F894,-3.6512566,40.4498383,"'28043,ES,Madrid,Madrid,Calle de Arturo soria 128,Madrid'"
F895,-3.7337766,40.4288466,"'28008,ES,Madrid,Madrid,Paseo del Comandante fortea 66,Madrid'"
F896,-3.6702116,40.48216,"'28033,ES,Madrid,Madrid,Calle de Caleruega 66,Madrid'"
F897,-3.6429116,40.4059683,"'28030,ES,Madrid,Madrid,Calle del Camino de los vinateros 161,Madrid'"
F898,-3.7094216,40.4507116,"'28039,ES,Madrid,Madrid,Avenida del Doctor federico rubio y gali 25,Madrid'"
F899,-3.6715533,40.4296816,"'28006,ES,Madrid,Madrid,Calle de José ortega y gasset 85,Madrid'"
F900,-3.6765366,40.4610216,"'28016,ES,Madrid,Madrid,Avenida de Pío xii 3,Madrid'"
F901,-3.6699766,40.4068616,"'28007,ES,Madrid,Madrid,Plaza del Conde de casal 5,Madrid'"
F902,-3.7168083,40.3857083,"'28019,ES,Madrid,Madrid, A-42 ,Madrid'"
F903,-3.6597583,40.4918883,"'28050,ES,Madrid,Madrid,Calle de Ana de austria 12,Madrid'"
F904,-3.7023333,40.3993833,"'28005,ES,Madrid,Madrid,Calle de la Arquitectura 11,Madrid'"
F905,-3.7348233,40.41639,"'28011,ES,Madrid,Madrid,Ronda del Lago 2,Madrid'"
F906,-3.6853166,40.4634783,"'28036,ES,Madrid,Madrid,Calle del General lópez pozas 2,Madrid'"
F907,-3.6574983,40.4141933,"'28030,ES,Madrid,Madrid,Calle del Alcalde garrido juaristi 2,Madrid'"
F908,-3.6823533,40.47674,"'28046,ES,Madrid,Madrid,Calle de Mauricio legendre 38D,Madrid'"
F909,-3.6821683,40.4769233,"'28046,ES,Madrid,Madrid,Calle de Mauricio legendre 38D,Madrid'"
F910,-3.73009,40.426385,"'28008,ES,Madrid,Madrid,Calle de Santovenia 6,Madrid'"
F911,-3.6173433,40.4436999,"'28027,ES,Madrid,Madrid,Calle de Alcalá 550,Madrid'"
F912,-3.6636883,40.4879166,"'28050,ES,Madrid,Madrid,Avenida de Manoteras 46B,Madrid'"
F913,-3.7352866,40.41229,"'28011,ES,Madrid,Madrid,Bulevar de la Avenida de portugal ,Madrid'"
F914,-3.7122616,40.4061816,"'28005,ES,Madrid,Madrid,Calle de Toledo 118,Madrid'"
F915,-3.656055,40.414175,"'28030,ES,Madrid,Madrid,Calle del Alcalde garrido juaristi 17,Madrid'"
F916,-3.7377283,40.40266,"'28047,ES,Madrid,Madrid,Calle Cjal. francisco josé jiménez martín 28,Madrid'"
F917,-3.6669466,40.4804483,"'28033,ES,Madrid,Madrid,Calle de Arturo soria 329,Madrid'"
F918,-3.6701033,40.4819616,"'28033,ES,Madrid,Madrid,Calle de Caleruega 68,Madrid'"
F919,-3.6782433,40.434795,"'28006,ES,Madrid,Madrid,Calle de Diego de león 49,Madrid'"
F920,-3.6782566,40.4347866,"'28006,ES,Madrid,Madrid,Calle de Diego de león 49,Madrid'"
F921,-3.669375,40.3879566,"'28053,ES,Madrid,Madrid,Calle de Manuel maroto 48,Madrid'"
F922,-3.7051799,40.4795266,"'28029,ES,Madrid,Madrid,Avenida de Monforte de lemos 101,Madrid'"
F923,-3.6765583,40.4610133,"'28016,ES,Madrid,Madrid,Avenida de Pío xii 3,Madrid'"
F924,-3.6824433,40.4768433,"'28046,ES,Madrid,Madrid,Calle de Mauricio legendre 38D,Madrid'"
F925,-3.6586516,40.491545,"'28050,ES,Madrid,Madrid,Calle de la Princesa de éboli 3B,Madrid'"
F926,-3.7135683,40.4578033,"'28040,ES,Madrid,Madrid,Calle de María auxiliadora 1,Madrid'"
F927,-3.6691116,40.4053483,"'28007,ES,Madrid,Madrid,Calle de Carlos y guillermo fernández shaw 1C,Madrid'"
F928,-3.673265,40.4687533,"'28016,ES,Madrid,Madrid,Avenida de Pío xii 46,Madrid'"
F929,-3.717,40.4075983,"'28005,ES,Madrid,Madrid,Paseo Imperial 31,Madrid'"
F930,-3.66476,40.4655916,"'28033,ES,Madrid,Madrid,Calle de Piquer 1,Madrid'"
F931,-3.7236816,40.48016,"'28035,ES,Madrid,Madrid,Calle de Ramón gómez de la serna 2,Madrid'"
F932,-3.6697016,40.3985299,"'28007,ES,Madrid,Madrid,Avenida de la Ciudad de barcelona 226,Madrid'"
F933,-3.7003183,40.3887466,"'28026,ES,Madrid,Madrid,Calle de Antonio lópez 168,Madrid'"
F934,-3.737795,40.4026516,"'28047,ES,Madrid,Madrid,Calle Cjal. francisco josé jiménez martín 28,Madrid'"
F935,-3.7421833,40.3906499,"'28025,ES,Madrid,Madrid,Calle de la Laguna 95,Madrid'"
F936,-3.666555,40.4802983,"'28033,ES,Madrid,Madrid,Calle de la Cultura 11,Madrid'"
F937,-3.72474,40.4056533,"'28011,ES,Madrid,Madrid,Paseo de la Ermita del santo ,Madrid'"
F938,-3.73318,40.432665,"'28008,ES,Madrid,Madrid,Avenida de Valladolid 81,Madrid'"
F939,-3.6702716,40.4820666,"'28033,ES,Madrid,Madrid,Calle de Caleruega 66,Madrid'"
F940,-3.6409383,40.4768833,"'28033,ES,Madrid,Madrid,Calle de Santa virgilia 19,Madrid'"
F941,-3.6764566,40.4608666,"'28016,ES,Madrid,Madrid,Avenida de Pío xii 1,Madrid'"
F942,-3.6461883,40.4083633,"'28030,ES,Madrid,Madrid,Calle del Camino de los vinateros 110,Madrid'"
F943,-3.7033633,40.4655933,"'28039,ES,Madrid,Madrid,Calle de los Voluntarios catalanes 55,Madrid'"
F944,-3.6691633,40.3979783,"'28038,ES,Madrid,Madrid,Avenida de la Albufera 1,Madrid'"
F945,-3.689395,40.461855,"'28046,ES,Madrid,Madrid,Paseo de la Castellana 194,Madrid'"
F946,-3.6373683,40.4084466,"'28030,ES,Madrid,Madrid,Avenida del Doctor garcía tapia 194,Madrid'"
F947,-3.6005633,40.4542416,"'28042,ES,Madrid,Madrid,Plaza del Capricho 46,Madrid'"
F948,-3.6005733,40.45428,"'28042,ES,Madrid,Madrid,Plaza del Capricho 46,Madrid'"
F949,-3.6702533,40.4820333,"'28033,ES,Madrid,Madrid,Calle de Caleruega 66,Madrid'"
F950,-3.6692033,40.405315,"'28007,ES,Madrid,Madrid,Calle de Carlos y guillermo fernández shaw 1,Madrid'"
F951,-3.6764499,40.4610233,"'28016,ES,Madrid,Madrid,Avenida de Pío xii 3,Madrid'"
F952,-3.70435,40.436105,"'28015,ES,Madrid,Madrid,Calle de Bravo murillo 22,Madrid'"
F953,-3.6824266,40.4767583,"'28046,ES,Madrid,Madrid,Calle de Mauricio legendre 38D,Madrid'"
F954,-3.6891966,40.4617533,"'28046,ES,Madrid,Madrid,Paseo de la Castellana 194,Madrid'"
F955,-3.7118333,40.4068983,"'28005,ES,Madrid,Madrid,Glorieta de la Puerta de toledo 6,Madrid'"
F956,-3.6953933,40.3797866,"'28041,ES,Madrid,Madrid,Calle de Antonio lópez 254B,Madrid'"
F957,-3.6686083,40.4049933,"'28007,ES,Madrid,Madrid,Calle de Carlos y guillermo fernández shaw 1E,Madrid'"
F958,-3.7120216,40.4035983,"'28005,ES,Madrid,Madrid,Travesía de San isidoro de sevilla 6E,Madrid'"
F959,-3.6164366,40.4825783,"'28055,ES,Madrid,Madrid,Avenida de las Fuerzas armadas ,Madrid'"
F960,-3.7215716,40.3923183,"'28019,ES,Madrid,Madrid,Calle de los Hermanos del moral 41,Madrid'"
F961,-3.6986716,40.4418733,"'28003,ES,Madrid,Madrid,Calle de Ríos rosas 31,Madrid'"
F962,-3.7034983,40.4656366,"'28039,ES,Madrid,Madrid,Calle de los Voluntarios catalanes 66A,Madrid'"
F963,-3.672565,40.4033699,"'28007,ES,Madrid,Madrid,Calle de Garibay 191,Madrid'"
F964,-3.7105166,40.4179283,"'28013,ES,Madrid,Madrid,Calle de Vergara 3B,Madrid'"
F965,-3.717805,40.4139583,"'28005,ES,Madrid,Madrid,Calle de Segovia 47B,Madrid'"
F966,-3.6876166,40.4269,"'28001,ES,Madrid,Madrid,Calle de Serrano 44B,Madrid'"
F967,-3.69324,40.4186,"'28014,ES,Madrid,Madrid,Paseo del Prado 1,Madrid'"
F968,-3.6783616,40.5094033,"'28050,ES,Madrid,Madrid,Calle de Castiello de jaca 14G,Madrid'"
F969,-3.7304366,40.42821,"'28008,ES,Madrid,Madrid,Calle de Aniceto marinas 98,Madrid'"
F970,-3.6770533,40.4494016,"'28002,ES,Madrid,Madrid,Calle del Doctor marco corera 1,Madrid'"
F971,-3.66019,40.4916783,"'28050,ES,Madrid,Madrid,Calle de Ana de austria ,Madrid'"
F972,-3.6510883,40.4497833,"'28043,ES,Madrid,Madrid,Calle de Arturo soria 126,Madrid'"
F973,-3.663785,40.488,"'28050,ES,Madrid,Madrid,Avenida de Manoteras 46B,Madrid'"
F974,-3.6008349,40.4230416,"'28022,ES,Madrid,Madrid,Paseo de Ginebra 55,Madrid'"
F975,-3.6848383,40.4716183,"'28046,ES,Madrid,Madrid,Calle de Agustín de foxá 31,Madrid'"
F976,-3.6589116,40.4916483,"'28050,ES,Madrid,Madrid,Calle de la Princesa de éboli 3B,Madrid'"
F977,-3.6645333,40.4033916,"'28038,ES,Madrid,Madrid,Calle de Sicilia 54,Madrid'"
F978,-3.67465,40.413175,"'28009,ES,Madrid,Madrid,Calle de Pío baroja 8,Madrid'"
F979,-3.6976216,40.44115,"'28003,ES,Madrid,Madrid,Calle de Alonso cano 44,Madrid'"
F980,-3.6254466,40.437965,"'28037,ES,Madrid,Madrid,Calle Albasánz 56,Madrid'"
F981,-3.6313316,40.4800266,"'28055,ES,Madrid,Madrid,Calle de Aurora redondo 4,Madrid'"
F982,-3.7189499,40.3894916,"'28019,ES,Madrid,Madrid,Calle de Alejandro sánchez 87,Madrid'"
F983,-3.6791466,40.391685,"'28045,ES,Madrid,Madrid,Calle Titán 10,Madrid'"
F984,-3.66372,40.4879333,"'28050,ES,Madrid,Madrid,Avenida de Manoteras 46B,Madrid'"
F985,-3.7247233,40.4144633,"'28011,ES,Madrid,Madrid,Calle de Saavedra fajardo 8,Madrid'"
F986,-3.6947716,40.4032383,"'28045,ES,Madrid,Madrid,Calle de Palos de la frontera 27,Madrid'"
F987,-3.688165,40.41943,"'28001,ES,Madrid,Madrid,Avenida de Méjico ,Madrid'"
F988,-3.6297716,40.4104333,"'28030,ES,Madrid,Madrid, V.c. cuña de o'donnell ,Madrid'"
F989,-3.73137,40.4272083,"'28008,ES,Madrid,Madrid,Calle de Felipe moratilla 6,Madrid'"
F990,-3.70081,40.4575216,"'28020,ES,Madrid,Madrid,Calle de San germán 72,Madrid'"
F991,-3.6715133,40.4296233,"'28006,ES,Madrid,Madrid,Calle de José ortega y gasset 94,Madrid'"
F992,-3.7163466,40.3976666,"'28019,ES,Madrid,Madrid,Glorieta Marqués de vadillo 7,Madrid'"
F993,-3.6683916,40.4203483,"'28007,ES,Madrid,Madrid,Calle de Antonio casero 4,Madrid'"
F994,-3.625095,40.4385083,"'28037,ES,Madrid,Madrid,Calle Valentín beato 28,Madrid'"
F995,-3.6697166,40.3986616,"'28007,ES,Madrid,Madrid,Avenida de la Ciudad de barcelona 115,Madrid'"
F996,-3.6700983,40.4820483,"'28033,ES,Madrid,Madrid,Calle de Caleruega 68,Madrid'"
F997,-3.6988283,40.4243583,"'28004,ES,Madrid,Madrid,Calle de Santa brígida 25,Madrid'"
F998,-3.68932,40.4309499,"'28046,ES,Madrid,Madrid,Paseo de la Castellana 29,Madrid'"
F999,-3.6825216,40.4766366,"'28046,ES,Madrid,Madrid,Calle de Mauricio legendre 38D,Madrid'"
F1000,-3.7215716,40.4677316,"'28035,ES,Madrid,Madrid,Calle de Valderrey 10,Madrid'"
F1001,-3.6820733,40.4769016,"'28046,ES,Madrid,Madrid,Calle de Mauricio legendre 38D,Madrid'"
F1002,-3.6824483,40.4765166,"'28046,ES,Madrid,Madrid,Calle de Mauricio legendre 38D,Madrid'"
F1003,-3.6823033,40.4767583,"'28046,ES,Madrid,Madrid,Calle de Mauricio legendre 38D,Madrid'"
F1004,-3.6560516,40.4546749,"'28043,ES,Madrid,Madrid,Calle de Ángel muñoz 2,Madrid'"
F1005,-3.7193416,40.4091433,"'28005,ES,Madrid,Madrid,Calle de Juan duque 45,Madrid'"
F1006,-3.6823766,40.4766983,"'28046,ES,Madrid,Madrid,Calle de Mauricio legendre 38D,Madrid'"
F1007,-3.6865816,40.4924933,"'28034,ES,Madrid,Madrid,Calle de Nuestra señora de valverde 19,Madrid'"
F1008,-3.6511333,40.4260733,"'28017,ES,Madrid,Madrid,Avenida del Marqués de corbera 52,Madrid'"
F1009,-3.6588116,40.4916833,"'28050,ES,Madrid,Madrid,Calle de la Princesa de éboli 3B,Madrid'"
F1010,-3.7307149,40.4298233,"'28008,ES,Madrid,Madrid,Avenida de Valladolid 47G,Madrid'"
F1011,-3.7008016,40.4115583,"'28012,ES,Madrid,Madrid,Calle del Olmo 17,Madrid'"
F1012,-3.6825783,40.50168,"'28034,ES,Madrid,Madrid,Calle de Antonio de cabezón 85,Madrid'"
F1013,-3.6562116,40.455535,"'28043,ES,Madrid,Madrid,Calle de Arturo soria 155,Madrid'"
F1014,-3.6634433,40.4844833,"'28050,ES,Madrid,Madrid,Calle de Manuel azaña ,Madrid'"
F1015,-3.7246566,40.4142083,"'28011,ES,Madrid,Madrid,Glorieta del Puente de segovia 3,Madrid'"
F1016,-3.6623666,40.4886,"'28050,ES,Madrid,Madrid,Calle de Oña 105,Madrid'"
F1017,-3.7224683,40.4220283,"'28008,ES,Madrid,Madrid,Paseo de la Florida 25,Madrid'"
F1018,-3.69874,40.4606416,"'28039,ES,Madrid,Madrid,Calle del Marqués de viana 2,Madrid'"
F1019,-3.7330416,40.4326133,"'28008,ES,Madrid,Madrid,Avenida de Valladolid 79,Madrid'"
F1020,-3.7168366,40.3858649,"'28026,ES,Madrid,Madrid, A-42 ,Madrid'"
F1021,-3.7324833,40.3922566,"'28019,ES,Madrid,Madrid,Calle de Algorta 33,Madrid'"
F1022,-3.7131733,40.3938083,"'28019,ES,Madrid,Madrid,Calle de Baleares 33,Madrid'"
F1023,-3.697445,40.441695,"'28003,ES,Madrid,Madrid,Calle de Alonso cano 71,Madrid'"
F1024,-3.694395,40.4482666,"'28020,ES,Madrid,Madrid,Avenida Centrum ,Madrid'"
F1025,-3.6974466,40.4416966,"'28003,ES,Madrid,Madrid,Calle de Alonso cano 71,Madrid'"
F1026,-3.70553,40.4361866,"'28015,ES,Madrid,Madrid,Calle de Magallanes 42,Madrid'"
F1027,-3.70576,40.4208866,"'28004,ES,Madrid,Madrid,Calle de Miguel moya 6,Madrid'"
F1028,-3.72196,40.4221699,"'28008,ES,Madrid,Madrid,Paseo de la Florida 23,Madrid'"
F1029,-3.6579666,40.4072883,"'28030,ES,Madrid,Madrid,Plaza del Corregidor alonso de aguilar 5,Madrid'"
F1030,-3.6563316,40.4485716,"'28043,ES,Madrid,Madrid,Calle de Ramírez de arellano 21B,Madrid'"
F1031,-3.6587833,40.4917549,"'28050,ES,Madrid,Madrid,Calle de la Princesa de éboli 3B,Madrid'"
F1032,-3.7062933,40.42852,"'28015,ES,Madrid,Madrid,Calle de San bernardo 87,Madrid'"
F1033,-3.703005,40.45353,"'28020,ES,Madrid,Madrid,Calle de Bravo murillo 181,Madrid'"
F1034,-3.6953099,40.3797116,"'28041,ES,Madrid,Madrid,Calle de Antonio lópez 254B,Madrid'"
F1035,-3.6692383,40.3978516,"'28053,ES,Madrid,Madrid,Calle de Antonia calas 2,Madrid'"
F1036,-3.7174483,40.4640799,"'28039,ES,Madrid,Madrid,Calle de Artajona 21E,Madrid'"
F1037,-3.7471683,40.3683166,"'28044,ES,Madrid,Madrid,Calle del Haya 3A,Madrid'"
F1038,-3.6959933,40.3836833,"'28026,ES,Madrid,Madrid,Camino de Perales 236,Madrid'"
F1039,-3.655675,40.4209083,"'28017,ES,Madrid,Madrid,Calle de Félix rodríguez de la fuente 93,Madrid'"
F1040,-3.7199033,40.3926116,"'28019,ES,Madrid,Madrid,Calle de Belmonte de tajo 26,Madrid'"
F1041,-3.7170866,40.39558,"'28019,ES,Madrid,Madrid,Calle de Jacinto verdaguer 24,Madrid'"
F1042,-3.6252733,40.438205,"'28037,ES,Madrid,Madrid,Calle Albasánz 58,Madrid'"
F1043,-3.6754016,40.424275,"'28009,ES,Madrid,Madrid,Avenida Felipe ii 5,Madrid'"
F1044,-3.6362783,40.42814,"'28017,ES,Madrid,Madrid,Calle de Luis ruiz 58C,Madrid'"
F1045,-3.6485666,40.4370716,"'28027,ES,Madrid,Madrid,Calle de José del hierro ,Madrid'"
F1046,-3.7003166,40.3887883,"'28026,ES,Madrid,Madrid,Calle de Antonio lópez 166,Madrid'"
F1047,-3.66999,40.4824183,"'28033,ES,Madrid,Madrid,Calle de Caleruega 88B,Madrid'"
F1048,-3.7175766,40.3901333,"'28019,ES,Madrid,Madrid,Calle Antoñita jiménez 22,Madrid'"
F1049,-3.6985383,40.4183249,"'28014,ES,Madrid,Madrid,Calle de Alcalá 26,Madrid'"
F1050,-3.6852583,40.3963,"'28045,ES,Madrid,Madrid,Calle de la Estrella naos 10,Madrid'"
F1051,-3.6301533,40.4637333,"'28043,ES,Madrid,Madrid,Calle Ramón power 34,Madrid'"
F1052,-3.6571666,40.48958,"'28050,ES,Madrid,Madrid,Avenida de Francisco pi y margall 62,Madrid'"
F1053,-3.6634216,40.484425,"'28050,ES,Madrid,Madrid,Calle de Manuel azaña ,Madrid'"
F1054,-3.7315966,40.4120916,"'28011,ES,Madrid,Madrid,Calle de Antonio zamora 69,Madrid'"
F1055,-3.6980466,40.4222,"'28004,ES,Madrid,Madrid,Calle de Augusto figueroa 20,Madrid'"
F1056,-3.6530033,40.4201583,"'28017,ES,Madrid,Madrid,Calle de Santa irene 1,Madrid'"
F1057,-3.7043516,40.4349716,"'28015,ES,Madrid,Madrid,Calle de Bravo murillo 12B,Madrid'"
F1058,-3.7111916,40.42288,"'28013,ES,Madrid,Madrid,Calle de Leganitos 32,Madrid'"
F1059,-3.6974433,40.4230783,"'28004,ES,Madrid,Madrid,Calle de San gregorio 2,Madrid'"
F1060,-3.72049,40.3898466,"'28019,ES,Madrid,Madrid,Calle de Alejandro sánchez 63,Madrid'"
F1061,-3.6657166,40.49169,"'28050,ES,Madrid,Madrid,Calle de Ana de austria 4,Madrid'"
F1062,-3.682415,40.4767933,"'28046,ES,Madrid,Madrid,Calle de Mauricio legendre 38D,Madrid'"
F1063,-3.7292616,40.4140883,"'28011,ES,Madrid,Madrid,Plaza de la Puerta del ángel 3,Madrid'"
F1064,-3.7009333,40.4114966,"'28012,ES,Madrid,Madrid,Calle del Olmo 10,Madrid'"
F1065,-3.682395,40.47655,"'28046,ES,Madrid,Madrid,Calle de Mauricio legendre 38D,Madrid'"
F1066,-3.7075,40.42641,"'28015,ES,Madrid,Madrid,Calle del Norte 10,Madrid'"
F1067,-3.62471,40.4584183,"'28043,ES,Madrid,Madrid,Plaza de López de la plata 2,Madrid'"
F1068,-3.7202216,40.3899383,"'28019,ES,Madrid,Madrid,Calle de Belmonte de tajo 76,Madrid'"
F1069,-3.69805,40.4710416,"'28029,ES,Madrid,Madrid,Calle de Regina 57,Madrid'"
F1070,-3.67533,40.43004,"'28006,ES,Madrid,Madrid,Calle del Conde de peñalver 48,Madrid'"
F1071,-3.6824833,40.4766866,"'28046,ES,Madrid,Madrid,Calle de Mauricio legendre 38D,Madrid'"
F1072,-3.68242,40.476695,"'28046,ES,Madrid,Madrid,Calle de Mauricio legendre 38D,Madrid'"
F1073,-3.7159833,40.4221066,"'28008,ES,Madrid,Madrid,Calle de Irún 7,Madrid'"
F1074,-3.682335,40.4768,"'28046,ES,Madrid,Madrid,Calle de Mauricio legendre 38D,Madrid'"
F1075,-3.7332433,40.4327149,"'28008,ES,Madrid,Madrid,Avenida de Valladolid 81,Madrid'"
F1076,-3.6652366,40.4803316,"'28033,ES,Madrid,Madrid,Calle Jazmín 50,Madrid'"
F1077,-3.70128,40.4115866,"'28012,ES,Madrid,Madrid,Calle del Olmo 5,Madrid'"
F1078,-3.72024,40.404545,"'28005,ES,Madrid,Madrid,Paseo de los Melancólicos 47,Madrid'"
F1079,-3.71812,40.4105433,"'28005,ES,Madrid,Madrid,Paseo Imperial 2,Madrid'"
F1080,-3.6958116,40.505165,"'28049,ES,Madrid,Madrid,Avenida Monasterio de silos 61,Madrid'"
F1081,-3.6820266,40.4768566,"'28046,ES,Madrid,Madrid,Calle de Mauricio legendre 38D,Madrid'"
F1082,-3.6825333,40.47646,"'28046,ES,Madrid,Madrid,Calle de Mauricio legendre 38D,Madrid'"
F1083,-3.6497033,40.46419,"'28043,ES,Madrid,Madrid,Calle de Agustín calvo 20,Madrid'"
F1084,-3.68206,40.42208,"'28001,ES,Madrid,Madrid,Calle de Villanueva 43,Madrid'"
F1085,-3.6595733,40.4905583,"'28050,ES,Madrid,Madrid,Avenida de Francisco pi y margall 77,Madrid'"
F1086,-3.6563783,40.4469333,"'28043,ES,Madrid,Madrid,Calle de Torrelaguna 77,Madrid'"
F1087,-3.6822966,40.4768383,"'28046,ES,Madrid,Madrid,Calle de Mauricio legendre 38D,Madrid'"
F1088,-3.7089283,40.411295,"'28005,ES,Madrid,Madrid,Plaza de la Cebada 16,Madrid'"
F1089,-3.6824516,40.4766133,"'28046,ES,Madrid,Madrid,Calle de Mauricio legendre 38D,Madrid'"
F1090,-3.637345,40.4085183,"'28030,ES,Madrid,Madrid,Avenida del Doctor garcía tapia 194,Madrid'"
F1091,-3.6554366,40.4106499,"'28030,ES,Madrid,Madrid,Calle del Camino de los vinateros 38B,Madrid'"
F1092,-3.6826133,40.476555,"'28046,ES,Madrid,Madrid,Calle de Mauricio legendre 38D,Madrid'"
F1093,-3.6948416,40.4029616,"'28045,ES,Madrid,Madrid,Calle de Palos de la frontera 25,Madrid'"
F1094,-3.6763683,40.4656649,"'28016,ES,Madrid,Madrid,Avenida del Comandante franco 11,Madrid'"
F1095,-3.7226716,40.4023266,"'28019,ES,Madrid,Madrid,Avenida del Manzanares 60,Madrid'"
F1096,-3.66343,40.4844499,"'28050,ES,Madrid,Madrid,Calle de Manuel azaña ,Madrid'"
F1097,-3.683895,40.503225,"'28034,ES,Madrid,Madrid,Anillo Verde ciclista - tramo 6 93,Madrid'"
F1098,-3.6842766,40.4722583,"'28046,ES,Madrid,Madrid,Calle de Mauricio ravel 10,Madrid'"
F1099,-3.6646816,40.4470816,"'28002,ES,Madrid,Madrid,Calle de Luis de salazar 16,Madrid'"
F1100,-3.6817149,40.4766766,"'28046,ES,Madrid,Madrid,Calle de Mauricio legendre 38D,Madrid'"
F1101,-3.6824833,40.47675,"'28046,ES,Madrid,Madrid,Calle de Mauricio legendre 38D,Madrid'"
F1102,-3.6765283,40.4611183,"'28016,ES,Madrid,Madrid,Avenida de Pío xii 5,Madrid'"
F1103,-3.65642,40.4471516,"'28043,ES,Madrid,Madrid,Calle de Torrelaguna 77,Madrid'"
F1104,-3.7219333,40.3928166,"'28019,ES,Madrid,Madrid,Calle de Mercedes arteaga 17,Madrid'"
F1105,-3.6173616,40.4436483,"'28027,ES,Madrid,Madrid,Calle de Alcalá 548,Madrid'"
F1106,-3.736615,40.43202,"'28008,ES,Madrid,Madrid,Calle de Santa pola 20,Madrid'"
F1107,-3.711195,40.4234466,"'28008,ES,Madrid,Madrid,Plaza de España 1,Madrid'"
F1108,-3.6823116,40.4766916,"'28046,ES,Madrid,Madrid,Calle de Mauricio legendre 38D,Madrid'"
F1109,-3.685195,40.47943,"'28046,ES,Madrid,Madrid,Paseo de la Castellana 298,Madrid'"
F1110,-3.6975733,40.3929366,"'28045,ES,Madrid,Madrid,Paseo de la Chopera 49,Madrid'"
F1111,-3.68252,40.4766283,"'28046,ES,Madrid,Madrid,Calle de Mauricio legendre 38D,Madrid'"
F1112,-3.7229516,40.4913783,"'28035,ES,Madrid,Madrid,Calle de la Senda del infante 34,Madrid'"
F1113,-3.72292,40.4917483,"'28035,ES,Madrid,Madrid,Anillo Verde ciclista - tramo 6 ,Madrid'"
F1114,-3.6792583,40.4149316,"'28009,ES,Madrid,Madrid,Plaza Independencia ,Madrid'"
F1115,-3.6818183,40.476845,"'28046,ES,Madrid,Madrid,Calle de Mauricio legendre 38D,Madrid'"
F1116,-3.701845,40.3847666,"'28026,ES,Madrid,Madrid,Calle de la Madre cándida maría de jesús 4,Madrid'"
F1117,-3.7110716,40.382005,"'28026,ES,Madrid,Madrid,Avenida de Rafaela ybarra 18,Madrid'"
F1118,-3.6909916,40.4125216,"'28014,ES,Madrid,Madrid,Calle de Espalter 3,Madrid'"
F1119,-3.690375,40.40742,"'28007,ES,Madrid,Madrid,Plaza del Embarcadero de atocha ,Madrid'"
F1120,-3.70199,40.4250866,"'28004,ES,Madrid,Madrid,Calle de la Corredera alta de san pablo 10,Madrid'"
F1121,-3.6825266,40.4766916,"'28046,ES,Madrid,Madrid,Calle de Mauricio legendre 38D,Madrid'"
F1122,-3.6853283,40.459115,"'28036,ES,Madrid,Madrid,Calle del Padre damián 27,Madrid'"
F1123,-3.68553,40.4596833,"'28036,ES,Madrid,Madrid,Calle del Padre damián 44,Madrid'"
F1124,-3.6775916,40.395455,"'28045,ES,Madrid,Madrid,Calle del Ombu 16,Madrid'"
F1125,-3.6647616,40.4938383,"'28050,ES,Madrid,Madrid,Avenida de Francisco pi y margall 89,Madrid'"
F1126,-3.682425,40.4766766,"'28046,ES,Madrid,Madrid,Calle de Mauricio legendre 38D,Madrid'"
F1127,-3.6825133,40.5016383,"'28034,ES,Madrid,Madrid,Calle de Antonio de cabezón 85,Madrid'"
F1128,-3.711725,40.43523,"'28015,ES,Madrid,Madrid,Calle de Fernández de los ríos 53,Madrid'"
F1129,-3.6822533,40.4768716,"'28046,ES,Madrid,Madrid,Calle de Mauricio legendre 38D,Madrid'"
F1130,-3.70002,40.38332,"'28026,ES,Madrid,Madrid,Calle de los Evangelios 2,Madrid'"
F1131,-3.7049466,40.3821116,"'28026,ES,Madrid,Madrid,Calle de Francisco ruiz 23,Madrid'"
F1132,-3.6756216,40.42381,"'28009,ES,Madrid,Madrid,Avenida Felipe ii 14,Madrid'"
F1133,-3.6823316,40.477235,"'28046,ES,Madrid,Madrid,Calle de Mauricio legendre 38D,Madrid'"
F1134,-3.6511416,40.4261266,"'28017,ES,Madrid,Madrid,Avenida del Marqués de corbera 52,Madrid'"
F1135,-3.6408783,40.476765,"'28033,ES,Madrid,Madrid,Calle de Santa virgilia 19,Madrid'"
F1136,-3.6824883,40.4767133,"'28046,ES,Madrid,Madrid,Calle de Mauricio legendre 38D,Madrid'"
F1137,-3.6818916,40.4221666,"'28001,ES,Madrid,Madrid,Calle de Villanueva 43,Madrid'"
F1138,-3.6878733,40.42402,"'28001,ES,Madrid,Madrid,Calle de Jorge juan 4,Madrid'"
F1139,-3.6512733,40.4259633,"'28017,ES,Madrid,Madrid,Avenida del Marqués de corbera 50,Madrid'"
F1140,-3.72881,40.4089966,"'28011,ES,Madrid,Madrid,Calle de Caramuel 51,Madrid'"
F1141,-3.6650116,40.39606,"'28038,ES,Madrid,Madrid,Calle de Nuestra señora de las mercedes 13,Madrid'"
F1142,-3.6824266,40.476965,"'28046,ES,Madrid,Madrid,Calle de Mauricio legendre 38D,Madrid'"
F1143,-3.6615566,40.4814116,"'28033,ES,Madrid,Madrid,Calle del Golfo de salónica 58,Madrid'"
F1144,-3.6614966,40.4812716,"'28033,ES,Madrid,Madrid,Calle del Golfo de salónica 73,Madrid'"
F1145,-3.68645,40.4305866,"'28006,ES,Madrid,Madrid,Calle de José ortega y gasset 11,Madrid'"
F1146,-3.6701499,40.48216,"'28033,ES,Madrid,Madrid,Calle de Caleruega 66,Madrid'"
F1147,-3.652985,40.3885166,"'28038,ES,Madrid,Madrid,Avenida de Buenos aires 30,Madrid'"
F1148,-3.6956033,40.4276783,"'28004,ES,Madrid,Madrid,Plaza de Alonso martínez 6,Madrid'"
F1149,-3.651855,40.4053983,"'28030,ES,Madrid,Madrid,Plaza del Encuentro 4,Madrid'"
