location,latitude,longitude,city,county,state,country
Iowa,33.975674,-117.339872,Riverside,Riverside,California,United States
Chicago,33.975682,-117.34849,Riverside,Riverside,California,United States
Cranford,33.975668,-117.344192,Riverside,Riverside,California,United States
Magnolia,33.911917,-117.461389,Riverside,Riverside,California,United States
Riverside,33.9806,-117.3755,Riverside,Riverside,California,United States
