ID,BARRIO,WIKIDATA_BARRIO,DISTRITO,WIKIDATA_DISTRITO,LATITUD,LONGITUD,DIRECCION,FECHA_INSTALACION,MODELO
65239,Corralejos,https://wikidata.org/entity/Q10260772,Barajas,https://wikidata.org/entity/Q807230,40.46489143,-3.59293482,CALLE BAHIA DE POLLENSA 5 28042,2021-09-14T00:00:00Z,"MU-51"
71328,Canillejas,https://wikidata.org/entity/Q663013,San Blas-Canillejas,https://wikidata.org/entity/Q2001937,40.444638,-3.61375175,CALLE BOLTAÑA 11 28022,2021-09-16T00:00:00Z,"MU-51"
72245,Hellín,https://wikidata.org/entity/Q10294546,San Blas-Canillejas,https://wikidata.org/entity/Q2001937,40.42887106,-3.6112929,CALLE ARCOS DE JALON 59 28037,2021-09-21T00:00:00Z,"MU-51"
72888,Amposta,https://wikidata.org/entity/Q11905392,San Blas-Canillejas,https://wikidata.org/entity/Q2001937,40.42874195,-3.61788689,CALLE ALBERIQUE 12 28037,2021-09-14T00:00:00Z,"MU-51"
72940,Alameda de Osuna,https://wikidata.org/entity/Q760737,Barajas,https://wikidata.org/entity/Q807230,40.45151487,-3.59052171,CALLE BALANDRO 1 28042,2021-09-14T00:00:00Z,"MU-51"
72244,Rosas,https://wikidata.org/entity/Q18880469,San Blas-Canillejas,https://wikidata.org/entity/Q2001937,40.42754701,-3.60634821,AVENIDA NIZA 8 28022,2019-01-29T00:00:00Z,"MU-51"
73112,Canillas,https://wikidata.org/entity/Q9694341,Hortaleza,https://wikidata.org/entity/Q1928529,40.46334885,-3.65750359,CARRETERA CANILLAS 2 28043,2021-05-06T00:00:00Z,"MU-51"
73159,Valdefuentes,https://wikidata.org/entity/Q10388714,Hortaleza,https://wikidata.org/entity/Q1928529,40.49118123,-3.6528318,AVENIDA ALCALDE CONDE DE MAYALDE 13 28050,2021-09-15T00:00:00Z,"MU-51"
73114,Canillas,https://wikidata.org/entity/Q9694341,Hortaleza,https://wikidata.org/entity/Q1928529,40.46571173,-3.63354749,CALLE ROSA DE CASTRO 17 28043,2021-09-21T00:00:00Z,"MU-51"
73169,Alameda de Osuna,https://wikidata.org/entity/Q760737,Barajas,https://wikidata.org/entity/Q807230,40.46223034,-3.58064007,CALLE RIAÑO 9 28042,2021-09-14T00:00:00Z,"MU-51"
73192,Canillas,https://wikidata.org/entity/Q9694341,Hortaleza,https://wikidata.org/entity/Q1928529,40.46570246,-3.63359459,CALLE PEDRO ALONSO 7 28043,2020-03-03T00:00:00Z,"MU-51"
73197,Ventas,https://wikidata.org/entity/Q71762,Ciudad Lineal,https://wikidata.org/entity/Q1763694,40.4262682,-3.65094366,AVENIDA MARQUES DE CORBERA 54 28017,2021-09-16T00:00:00Z,"MU-51"
73191,Palomas,https://wikidata.org/entity/Q390460,Hortaleza,https://wikidata.org/entity/Q1928529,40.45714842,-3.61773391,AVENIDA ANDES 52 28042,2021-09-08T00:00:00Z,"MU-51"
73203,Casco Histórico de Barajas,https://wikidata.org/entity/Q9701730,Barajas,https://wikidata.org/entity/Q807230,40.47453379,-3.57786272,CALLE ORION 3 28042,2019-01-29T00:00:00Z,"MU-51"
76172,Salvador,https://wikidata.org/entity/Q10367095,San Blas-Canillejas,https://wikidata.org/entity/Q2001937,40.44349636,-3.6382916,CALLE MARIA LOMBILLO 2 28027,2021-09-23T00:00:00Z,"MU-51"
76180,Costillares,https://wikidata.org/entity/Q331385,Ciudad Lineal,https://wikidata.org/entity/Q1763694,40.48034054,-3.66523983,CALLE JAZMIN 15 28033,2021-09-17T00:00:00Z,"MU-51"
76183,San Juan Bautista,https://wikidata.org/entity/Q165609,Ciudad Lineal,https://wikidata.org/entity/Q1763694,40.44982078,-3.651229,CALLE ARTURO SORIA 126 28043,2021-09-20T00:00:00Z,"MU-51"
76191,Pueblo Nuevo,https://wikidata.org/entity/Q71753,Ciudad Lineal,https://wikidata.org/entity/Q1763694,40.42387815,-3.62806927,AVENIDA INSTITUCION LIBRE DE ENSEÑANZA 160 28037,2021-05-06T00:00:00Z,"MU-51"
78771,Canillas,https://wikidata.org/entity/Q9694341,Hortaleza,https://wikidata.org/entity/Q1928529,40.46807141,-3.63157922,CALLE LAS PEDROÑERAS 39 28043,2021-09-23T00:00:00Z,"MU-51"
79119,Rosas,https://wikidata.org/entity/Q18880469,San Blas-Canillejas,https://wikidata.org/entity/Q2001937,40.42262204,-3.60040702,PASEO GINEBRA 55 28022,2022-06-22T00:00:00Z,"ACB"
88068,Pueblo Nuevo,https://wikidata.org/entity/Q71753,Ciudad Lineal,https://wikidata.org/entity/Q1763694,40.42946502,-3.63215208,AVENIDA INSTITUCION LIBRE DE ENSEÑANZA 70 28037,2021-09-24T00:00:00Z,"MU-51"
88155,Pueblo Nuevo,https://wikidata.org/entity/Q71753,Ciudad Lineal,https://wikidata.org/entity/Q1763694,40.43001728,-3.63839639,CALLE FRANCISCO RIOJA 14 28017,2021-09-30T00:00:00Z,"MU-51"
94293,Apóstol Santiago,https://wikidata.org/entity/Q11906303,Hortaleza,https://wikidata.org/entity/Q1928529,40.4785149,-3.65284889,CARRETERA ESTACION DE HORTALEZA 11 28033,2021-09-23T00:00:00Z,"MU-51"
94479,Alameda de Osuna,https://wikidata.org/entity/Q760737,Barajas,https://wikidata.org/entity/Q807230,40.46321347,-3.58731337,AVENIDA LOGROÑO 231 28042,2021-05-06T00:00:00Z,"MU-51"
65534,Canillas,https://wikidata.org/entity/Q9694341,Hortaleza,https://wikidata.org/entity/Q1928529,40.46390383,-3.65089295,CALLE AGUSTIN CALVO 8 28043,2019-06-14T00:00:00Z,"MU-51"
66790,Canillas,https://wikidata.org/entity/Q9694341,Hortaleza,https://wikidata.org/entity/Q1928529,40.46436295,-3.62757795,CALLE EL PROVENCIO 20 28043,2021-02-11T00:00:00Z,"MU-51"
63467,Rejas,https://wikidata.org/entity/Q10359029,San Blas-Canillejas,https://wikidata.org/entity/Q2001937,40.4445903,-3.59403062,CALLE ONCE 7 28022,2019-06-14T00:00:00Z,"MU-51"
94507,Arcos,https://wikidata.org/entity/Q9627876,San Blas-Canillejas,https://wikidata.org/entity/Q2001937,40.4190012,-3.62129603,AVENIDA GUADALAJARA 4 28032,2021-02-11T00:00:00Z,"MU-51"
61947,Canillejas,https://wikidata.org/entity/Q663013,San Blas-Canillejas,https://wikidata.org/entity/Q2001937,40.44623731,-3.61208097,CALLE BOLTAÑA 68 28022,2019-06-14T00:00:00Z,"MU-51"
94487,Timón,https://wikidata.org/entity/Q10382570,Barajas,https://wikidata.org/entity/Q807230,40.47578109,-3.5825271,AVENIDA LOGROÑO 361 28042,2019-01-29T00:00:00Z,"MU-51"
94490,Timón,https://wikidata.org/entity/Q10382570,Barajas,https://wikidata.org/entity/Q807230,40.47301212,-3.58500127,CALLE TIMON 18 28042,2021-09-22T00:00:00Z,"MU-51"
94488,Timón,https://wikidata.org/entity/Q10382570,Barajas,https://wikidata.org/entity/Q807230,40.47302082,-3.58497185,CALLE TIMON 20 28042,2021-02-11T00:00:00Z,"MU-51"
94500,Alameda de Osuna,https://wikidata.org/entity/Q760737,Barajas,https://wikidata.org/entity/Q807230,40.46320544,-3.58735093,AVENIDA LOGROÑO 70 28042,2021-02-11T00:00:00Z,"MU-51"
94514,Arcos,https://wikidata.org/entity/Q9627876,San Blas-Canillejas,https://wikidata.org/entity/Q2001937,40.4195649,-3.62445684,AVENIDA INSTITUCION LIBRE DE ENSEÑANZA 129 28037,2021-09-02T00:00:00Z,"MU-51"
94517,Arcos,https://wikidata.org/entity/Q9627876,San Blas-Canillejas,https://wikidata.org/entity/Q2001937,40.42043996,-3.62268358,CALLE ARCOS DE JALON 11 28037,2021-09-23T00:00:00Z,"MU-51"
94525,Arcos,https://wikidata.org/entity/Q9627876,San Blas-Canillejas,https://wikidata.org/entity/Q2001937,40.42547876,-3.61873363,CALLE CONSERVEROS 4 28037,2021-02-11T00:00:00Z,"MU-51"
94521,Arcos,https://wikidata.org/entity/Q9627876,San Blas-Canillejas,https://wikidata.org/entity/Q2001937,40.42649564,-3.61338663,CALLE ELECTRICISTAS 11 28037,2021-09-08T00:00:00Z,"MU-51"
94542,Rejas,https://wikidata.org/entity/Q10359029,San Blas-Canillejas,https://wikidata.org/entity/Q2001937,40.44891098,-3.60030141,AVENIDA SEPTIMA 68 28022,2021-09-03T00:00:00Z,"MU-51"
66418,Arcos,https://wikidata.org/entity/Q9627876,San Blas-Canillejas,https://wikidata.org/entity/Q2001937,40.42021017,-3.6179267,AVENIDA GUADALAJARA 57 28032,2023-06-06T00:00:00Z,"MU-51"
72192,Palomas,https://wikidata.org/entity/Q390460,Hortaleza,https://wikidata.org/entity/Q1928529,40.45689019,-3.61812582,AVENIDA ANDES 50 28042,2021-09-16T00:00:00Z,"MU-51"
73163,Canillas,https://wikidata.org/entity/Q9694341,Hortaleza,https://wikidata.org/entity/Q1928529,40.46918828,-3.64215454,CALLE AREQUIPA 1 28043,2021-09-16T00:00:00Z,"MU-51"
73171,Corralejos,https://wikidata.org/entity/Q10260772,Barajas,https://wikidata.org/entity/Q807230,40.46725947,-3.59554247,CALLE BAHIA DE MALAGA 5 28042,2021-09-16T00:00:00Z,"MU-38"
73177,Canillas,https://wikidata.org/entity/Q9694341,Hortaleza,https://wikidata.org/entity/Q1928529,40.46087104,-3.65432447,CALLE CARRIL DEL CONDE 57 28043,2021-09-14T00:00:00Z,"MU-51"
73179,Canillas,https://wikidata.org/entity/Q9694341,Hortaleza,https://wikidata.org/entity/Q1928529,40.46651297,-3.64226837,CALLE JAVIER DEL QUINTO 12 28043,2021-09-17T00:00:00Z,"MU-51"
73196,Canillas,https://wikidata.org/entity/Q9694341,Hortaleza,https://wikidata.org/entity/Q1928529,40.46368113,-3.65277744,CALLE RICARDO SAN JUAN 2 28043,2021-09-10T00:00:00Z,"MU-51"
76182,Canillejas,https://wikidata.org/entity/Q663013,San Blas-Canillejas,https://wikidata.org/entity/Q2001937,40.4381198,-3.60779723,CALLE MUSAS 5 28022,2019-02-28T00:00:00Z,"MU-51"
78458,Pinar del Rey,https://wikidata.org/entity/Q10349788,Hortaleza,https://wikidata.org/entity/Q1928529,40.46903037,-3.63366278,CALLE AYACUCHO 30 28043,2021-05-06T00:00:00Z,"MU-51"
78765,Alameda de Osuna,https://wikidata.org/entity/Q760737,Barajas,https://wikidata.org/entity/Q807230,40.45896013,-3.58557417,CALLE BERGANTIN 11 28042,2021-02-11T00:00:00Z,"MU-51"
88594,San Juan Bautista,https://wikidata.org/entity/Q165609,Ciudad Lineal,https://wikidata.org/entity/Q1763694,40.44828539,-3.65828955,CALLE TREVIANA 1 28043,2021-02-11T00:00:00Z,"MU-51"
92976,Canillas,https://wikidata.org/entity/Q9694341,Hortaleza,https://wikidata.org/entity/Q1928529,40.46622412,-3.6402744,CALLE TORQUEMADA 5 28043,2021-09-24T00:00:00Z,"MU-51"
92978,Canillas,https://wikidata.org/entity/Q9694341,Hortaleza,https://wikidata.org/entity/Q1928529,40.46520043,-3.6506153,CALLE MANZANAR 12 28043,2021-09-16T00:00:00Z,"MU-51"
67743,Valdefuentes,https://wikidata.org/entity/Q10388714,Hortaleza,https://wikidata.org/entity/Q1928529,40.48781086,-3.66473836,AVENIDA MANOTERAS 46 28050,2021-09-21T00:00:00Z,"MU-51"
63447,Salvador,https://wikidata.org/entity/Q10367095,San Blas-Canillejas,https://wikidata.org/entity/Q2001937,40.44782787,-3.62814971,CALLE JUAN IGNACIO LUCA DE TENA 23 28027,2019-06-14T00:00:00Z,"MU-51"
60410,Valdefuentes,https://wikidata.org/entity/Q10388714,Hortaleza,https://wikidata.org/entity/Q1928529,40.47993854,-3.63147074,CALLE AURORA REDONDO 4 28055,2021-09-15T00:00:00Z,"MU-51"
94498,Corralejos,https://wikidata.org/entity/Q10260772,Barajas,https://wikidata.org/entity/Q807230,40.46411477,-3.61579961,AVENIDA PARTENON 5 28042,2021-09-23T00:00:00Z,"MU-51"
94510,Arcos,https://wikidata.org/entity/Q9627876,San Blas-Canillejas,https://wikidata.org/entity/Q2001937,40.41793005,-3.62060417,CALLE AQUITANIA 7 28032,2021-09-01T00:00:00Z,"MU-51"
94520,Arcos,https://wikidata.org/entity/Q9627876,San Blas-Canillejas,https://wikidata.org/entity/Q2001937,40.42103543,-3.62101415,CALLE ARCOS DE JALON 22 28037,2020-09-23T00:00:00Z,"MU-51"
94541,Rosas,https://wikidata.org/entity/Q18880469,San Blas-Canillejas,https://wikidata.org/entity/Q2001937,40.426957,-3.60648626,CALLE AUSTRIA 16 28022,2021-09-30T00:00:00Z,"MU-51"
94536,Salvador,https://wikidata.org/entity/Q10367095,San Blas-Canillejas,https://wikidata.org/entity/Q2001937,40.44421922,-3.63463119,CALLE LOPEZ DE ARANDA 29 28027,2021-09-07T00:00:00Z,"MU-51"
94531,Salvador,https://wikidata.org/entity/Q10367095,San Blas-Canillejas,https://wikidata.org/entity/Q2001937,40.44181946,-3.62891505,CALLE IQUITOS 20 28027,2021-09-03T00:00:00Z,"MU-51"
69316,Quintana,https://wikidata.org/entity/Q71810,Ciudad Lineal,https://wikidata.org/entity/Q1763694,40.43579303,-3.64900133,CALLE VIRGEN DEL SAGRARIO 22 28027,2019-01-29T00:00:00Z,"MU-51"
94559,Simancas,https://wikidata.org/entity/Q10371626,San Blas-Canillejas,https://wikidata.org/entity/Q2001937,40.43626846,-3.6366181,AVENIDA INSTITUCION LIBRE DE ENSEÑANZA 17A 28037,2019-02-04T00:00:00Z,"MU-51"
94984,Ventas,https://wikidata.org/entity/Q71762,Ciudad Lineal,https://wikidata.org/entity/Q1763694,40.4222671,-3.65641006,AVENIDA MARQUES DE CORBERA 6 28017,2021-09-01T00:00:00Z,"MU-51"
95548,Pueblo Nuevo,https://wikidata.org/entity/Q71753,Ciudad Lineal,https://wikidata.org/entity/Q1763694,40.43621684,-3.63704312,AVENIDA INSTITUCION LIBRE DE ENSEÑANZA 16 28037,2021-09-02T00:00:00Z,"MU-51"
96302,Amposta,https://wikidata.org/entity/Q11905392,San Blas-Canillejas,https://wikidata.org/entity/Q2001937,40.42359679,-3.62745661,AVENIDA INSTITUCION LIBRE DE ENSEÑANZA 89 28037,2021-10-01T00:00:00Z,"MU-51"
96307,Pueblo Nuevo,https://wikidata.org/entity/Q71753,Ciudad Lineal,https://wikidata.org/entity/Q1763694,40.42970361,-3.63232656,AVENIDA INSTITUCION LIBRE DE ENSEÑANZA 68 28037,2021-10-20T00:00:00Z,"MU-51"
96314,Rosas,https://wikidata.org/entity/Q18880469,San Blas-Canillejas,https://wikidata.org/entity/Q2001937,40.43457859,-3.60978664,AVENIDA ARCENTALES 28 28022,2021-10-13T00:00:00Z,"MU-51"
96328,San Juan Bautista,https://wikidata.org/entity/Q165609,Ciudad Lineal,https://wikidata.org/entity/Q1763694,40.44682083,-3.65905803,CALLE RAMIREZ DE ARELLANO 35 28043,2021-10-20T00:00:00Z,"MU-51"
96879,Canillas,https://wikidata.org/entity/Q9694341,Hortaleza,https://wikidata.org/entity/Q1928529,40.4601518,-3.64872404,PLAZA NUESTRA SEÑORA DEL TRANSITO 12 28043,2021-09-21T00:00:00Z,"MU-51"
98218,Canillejas,https://wikidata.org/entity/Q663013,San Blas-Canillejas,https://wikidata.org/entity/Q2001937,40.44900355,-3.60922831,CALLE ALCALA 629 28022,2019-01-29T00:00:00Z,"MU-51"
98367,Pinar del Rey,https://wikidata.org/entity/Q10349788,Hortaleza,https://wikidata.org/entity/Q1928529,40.46869287,-3.6488008,CALLE AGUSTIN DE ITURBIDE 1 28043,2021-05-06T00:00:00Z,"MU-51"
98364,Pinar del Rey,https://wikidata.org/entity/Q10349788,Hortaleza,https://wikidata.org/entity/Q1928529,40.47453949,-3.64516777,CALLE MAR DE LAS ANTILLAS 6 28033,2021-10-29T00:00:00Z,"MU-51"
98369,Pinar del Rey,https://wikidata.org/entity/Q10349788,Hortaleza,https://wikidata.org/entity/Q1928529,40.47756688,-3.65110924,CALLE ABIZANDA 68 28033,2021-05-06T00:00:00Z,"MU-51"
98379,Valdefuentes,https://wikidata.org/entity/Q10388714,Hortaleza,https://wikidata.org/entity/Q1928529,40.49114539,-3.65279605,CALLE PRINCIPE CARLOS 36 28050,2021-09-09T00:00:00Z,"MU-51"
98494,Palomas,https://wikidata.org/entity/Q390460,Hortaleza,https://wikidata.org/entity/Q1928529,40.4540056,-3.62254046,GLORIETA MAR CARIBE 5 28043,2021-09-16T00:00:00Z,"MU-51"
98567,Rejas,https://wikidata.org/entity/Q10359029,San Blas-Canillejas,https://wikidata.org/entity/Q2001937,40.44569989,-3.58870413,CALLE PIRRA 14 28022,2021-09-09T00:00:00Z,"MU-51"
98630,Rosas,https://wikidata.org/entity/Q18880469,San Blas-Canillejas,https://wikidata.org/entity/Q2001937,40.42709282,-3.60258173,CALLE BUDAPEST 11 28022,2021-09-09T00:00:00Z,"MU-51"
98643,San Pascual,https://wikidata.org/entity/Q165612,Ciudad Lineal,https://wikidata.org/entity/Q1763694,40.4376267,-3.65526634,CALLE DEMETRIO LOPEZ 6 28027,2021-09-01T00:00:00Z,"MU-51"
98648,San Juan Bautista,https://wikidata.org/entity/Q165609,Ciudad Lineal,https://wikidata.org/entity/Q1763694,40.45117409,-3.65884843,CALLE SORZANO 1 28043,2021-09-06T00:00:00Z,"MU-51"
98646,San Pascual,https://wikidata.org/entity/Q165612,Ciudad Lineal,https://wikidata.org/entity/Q1763694,40.44479863,-3.65689605,CALLE MARTINEZ VILLERGAS 50 28027,2021-09-09T00:00:00Z,"MU-51"
98641,Concepción,https://wikidata.org/entity/Q11915156,Ciudad Lineal,https://wikidata.org/entity/Q1763694,40.44199953,-3.63990194,CALLE LOPEZ DE ARANDA 5 28027,2021-09-13T00:00:00Z,"MU-51"
98655,Costillares,https://wikidata.org/entity/Q331385,Ciudad Lineal,https://wikidata.org/entity/Q1763694,40.47562975,-3.66780288,CALLE ANEMONAS 2 28033,2021-05-06T00:00:00Z,"MU-51"
98659,Ventas,https://wikidata.org/entity/Q71762,Ciudad Lineal,https://wikidata.org/entity/Q1763694,40.42335522,-3.65201459,CALLE NUESTRA SEÑORA DEL VILLAR 33 28017,2021-02-11T00:00:00Z,"MU-51"
98665,Ventas,https://wikidata.org/entity/Q71762,Ciudad Lineal,https://wikidata.org/entity/Q1763694,40.42434234,-3.65041549,CALLE SANTA FELICIDAD 39 28017,2021-08-04T00:00:00Z,"MU-51"
98672,Ventas,https://wikidata.org/entity/Q71762,Ciudad Lineal,https://wikidata.org/entity/Q1763694,40.4251973,-3.64991894,CALLE SANTA FELICIDAD 9 28017,2019-01-29T00:00:00Z,"MU-51"
98681,Canillejas,https://wikidata.org/entity/Q663013,San Blas-Canillejas,https://wikidata.org/entity/Q2001937,40.43776481,-3.60848968,CALLE MUSAS 11 28022,2021-05-06T00:00:00Z,"MU-51"
60406,Pinar del Rey,https://wikidata.org/entity/Q10349788,Hortaleza,https://wikidata.org/entity/Q1928529,40.47070579,-3.64741191,CALLE ANGEL LUIS DE LA HERRAN 42 28043,2019-05-24T00:00:00Z,"MU-51"
65229,Valdefuentes,https://wikidata.org/entity/Q10388714,Hortaleza,https://wikidata.org/entity/Q1928529,40.48741702,-3.66086796,CALLE OÑA 183 28050,2019-01-29T00:00:00Z,"MU-51"
73168,San Pascual,https://wikidata.org/entity/Q165612,Ciudad Lineal,https://wikidata.org/entity/Q1763694,40.44037062,-3.65116138,CALLE CANAL DE PANAMA 8 28027,2021-05-06T00:00:00Z,"MU-51"
73186,Canillas,https://wikidata.org/entity/Q9694341,Hortaleza,https://wikidata.org/entity/Q1928529,40.46337997,-3.65750497,CALLE LOPEZ DE HOYOS 327 28043,2021-07-15T00:00:00Z,"MU-51"
73195,Alameda de Osuna,https://wikidata.org/entity/Q760737,Barajas,https://wikidata.org/entity/Q807230,40.45833881,-3.58271574,CALLE GALEON 16 28042,2020-03-03T00:00:00Z,"MU-51"
73202,Alameda de Osuna,https://wikidata.org/entity/Q760737,Barajas,https://wikidata.org/entity/Q807230,40.45733606,-3.58797278,CALLE CORBETA 12 28042,2021-09-15T00:00:00Z,"MU-38"
84149,San Pascual,https://wikidata.org/entity/Q165612,Ciudad Lineal,https://wikidata.org/entity/Q1763694,40.445304,-3.64947156,CALLE AMARA 4 28027,2021-09-22T00:00:00Z,"MU-51"
94077,Canillas,https://wikidata.org/entity/Q9694341,Hortaleza,https://wikidata.org/entity/Q1928529,40.46390363,-3.65092833,CALLE AGUSTIN CALVO 15 28043,2021-09-22T00:00:00Z,"MU-51"
94485,Timón,https://wikidata.org/entity/Q10382570,Barajas,https://wikidata.org/entity/Q807230,40.47580659,-3.58250892,AVENIDA LOGROÑO 164 28042,2021-09-24T00:00:00Z,"MU-51"
64088,Alameda de Osuna,https://wikidata.org/entity/Q760737,Barajas,https://wikidata.org/entity/Q807230,40.45174911,-3.59629271,CALLE NORAY 13 28042,2019-01-29T00:00:00Z,"MU-51"
94547,Simancas,https://wikidata.org/entity/Q10371626,San Blas-Canillejas,https://wikidata.org/entity/Q2001937,40.43196127,-3.63069621,CALLE ALBARRACIN 54 28037,2021-09-14T00:00:00Z,"MU-51"
94564,Simancas,https://wikidata.org/entity/Q10371626,San Blas-Canillejas,https://wikidata.org/entity/Q2001937,40.43382715,-3.63192978,CALLE JULIAN CAMARILLO 11 28037,2021-09-07T00:00:00Z,"MU-51"
60412,Valdefuentes,https://wikidata.org/entity/Q10388714,Hortaleza,https://wikidata.org/entity/Q1928529,40.4799644,-3.63147004,CAMINO MONTORO 6 28055,2019-04-09T00:00:00Z,"MU-51"
97805,Salvador,https://wikidata.org/entity/Q10367095,San Blas-Canillejas,https://wikidata.org/entity/Q2001937,40.44305811,-3.62447951,AVENIDA VEINTICINCO DE SEPTIEMBRE 1 28027,2021-09-16T00:00:00Z,"MU-51"
98067,Pueblo Nuevo,https://wikidata.org/entity/Q71753,Ciudad Lineal,https://wikidata.org/entity/Q1763694,40.42304296,-3.63552866,CALLE GANDHI 12 28017,2021-10-21T00:00:00Z,"MU-51"
98382,Valdefuentes,https://wikidata.org/entity/Q10388714,Hortaleza,https://wikidata.org/entity/Q1928529,40.48998515,-3.65285644,CALLE INFANTA CATALINA MICAELA 37 28050,2021-09-10T00:00:00Z,"MU-51"
98669,Ventas,https://wikidata.org/entity/Q71762,Ciudad Lineal,https://wikidata.org/entity/Q1763694,40.42517912,-3.64989885,CALLE SANTA FELICIDAD 11 28017,2021-09-07T00:00:00Z,"MU-51"
98697,Pueblo Nuevo,https://wikidata.org/entity/Q71753,Ciudad Lineal,https://wikidata.org/entity/Q1763694,40.42326041,-3.62763538,AVENIDA INSTITUCION LIBRE DE ENSEÑANZA 168 28037,2021-09-02T00:00:00Z,"MU-51"
98704,Ventas,https://wikidata.org/entity/Q71762,Ciudad Lineal,https://wikidata.org/entity/Q1763694,40.42547994,-3.64611975,AVENIDA DAROCA 96 28017,2021-02-11T00:00:00Z,"MU-51"
98717,Quintana,https://wikidata.org/entity/Q71810,Ciudad Lineal,https://wikidata.org/entity/Q1763694,40.43825358,-3.64633046,CALLE ZIGIA 2 28027,2021-08-18T00:00:00Z,"MU-51"
98733,Concepción,https://wikidata.org/entity/Q11915156,Ciudad Lineal,https://wikidata.org/entity/Q1763694,40.44434694,-3.64692299,CALLE JUAN PEREZ ZUÑIGA 36 28027,2021-09-08T00:00:00Z,"MU-51"
101532,Concepción,https://wikidata.org/entity/Q11915156,Ciudad Lineal,https://wikidata.org/entity/Q1763694,40.43652188,-3.65079129,CALLE JOSE DEL HIERRO 3 28027,2019-06-14T00:00:00Z,"MU-51"
94538,Rosas,https://wikidata.org/entity/Q18880469,San Blas-Canillejas,https://wikidata.org/entity/Q2001937,40.42698768,-3.60646001,CALLE AUSTRIA 15 28022,2021-09-03T00:00:00Z,"MU-51"
60408,Pinar del Rey,https://wikidata.org/entity/Q10349788,Hortaleza,https://wikidata.org/entity/Q1928529,40.47071545,-3.64737567,CALLE ANGEL LUIS DE LA HERRAN 35 28043,2022-07-21T00:00:00Z,"MU-51"
94560,Simancas,https://wikidata.org/entity/Q10371626,San Blas-Canillejas,https://wikidata.org/entity/Q2001937,40.43627923,-3.63662622,AVENIDA INSTITUCION LIBRE DE ENSEÑANZA 17B 28037,2021-09-02T00:00:00Z,"MU-51"
97975,Apóstol Santiago,https://wikidata.org/entity/Q11906303,Hortaleza,https://wikidata.org/entity/Q1928529,40.47828213,-3.65585294,CALLE MONOVAR 19 28033,2021-09-08T00:00:00Z,"MU-51"
98667,Ventas,https://wikidata.org/entity/Q71762,Ciudad Lineal,https://wikidata.org/entity/Q1763694,40.42433366,-3.65038876,PASAJE SANTA FELICIDAD 5 28017,2021-08-06T00:00:00Z,"MU-51"
76192,Concepción,https://wikidata.org/entity/Q11915156,Ciudad Lineal,https://wikidata.org/entity/Q1763694,40.43723542,-3.64838228,CALLE JOSE DEL HIERRO 5 28027,2021-09-17T00:00:00Z,"MU-51"
94478,Casco Histórico de Barajas,https://wikidata.org/entity/Q9701730,Barajas,https://wikidata.org/entity/Q807230,40.47457153,-3.57788274,CALLE ORION 5 28042,2021-09-15T00:00:00Z,"MU-51"
66646,Canillas,https://wikidata.org/entity/Q9694341,Hortaleza,https://wikidata.org/entity/Q1928529,40.45944876,-3.64688714,CALLE PALERMO 48 28043,2023-06-07T00:00:00Z,"MU-51"
94864,San Pascual,https://wikidata.org/entity/Q165612,Ciudad Lineal,https://wikidata.org/entity/Q1763694,40.44519657,-3.64671522,CALLE ARTURO SORIA 71 28027,2020-09-23T00:00:00Z,"MU-51"
97977,Apóstol Santiago,https://wikidata.org/entity/Q11906303,Hortaleza,https://wikidata.org/entity/Q1928529,40.47767229,-3.6604141,CALLE SOMONTIN 59 28033,2021-09-09T00:00:00Z,"MU-51"
98636,Salvador,https://wikidata.org/entity/Q10367095,San Blas-Canillejas,https://wikidata.org/entity/Q2001937,40.44620027,-3.64332458,CALLE GENERAL ARANAZ 66 28027,2021-09-08T00:00:00Z,"MU-51"
98727,San Pascual,https://wikidata.org/entity/Q165612,Ciudad Lineal,https://wikidata.org/entity/Q1763694,40.44650383,-3.64531953,CALLE MARQUES DE PORTUGALETE 13 28027,2020-09-23T00:00:00Z,"MU-51"
109154,Palomas,https://wikidata.org/entity/Q390460,Hortaleza,https://wikidata.org/entity/Q1928529,40.4557121,-3.61384531,CALLE GUADALAJARA 46 28042,2019-03-13T00:00:00Z,"ACB"
109146,Canillas,https://wikidata.org/entity/Q9694341,Hortaleza,https://wikidata.org/entity/Q1928529,40.45998256,-3.64292662,CALLE ANDORRA 30 28043,2022-09-14T00:00:00Z,"ACB"
109179,Pinar del Rey,https://wikidata.org/entity/Q10349788,Hortaleza,https://wikidata.org/entity/Q1928529,40.4772031,-3.63976816,CALLE SANTA VIRGILIA 19 28033,2019-05-03T00:00:00Z,"ACB"
109163,Pinar del Rey,https://wikidata.org/entity/Q10349788,Hortaleza,https://wikidata.org/entity/Q1928529,40.46892718,-3.62953058,CALLE ACONCAGUA 4 28043,2022-09-21T00:00:00Z,"ACB"
109184,La Piovera,https://wikidata.org/entity/Q5964851,Hortaleza,https://wikidata.org/entity/Q1928529,40.46033026,-3.62241084,CALLE FLORENCIO CASTILLO 29 28043,2019-01-29T00:00:00Z,"ACB"
109158,Palomas,https://wikidata.org/entity/Q390460,Hortaleza,https://wikidata.org/entity/Q1928529,40.45367131,-3.60939901,CALLE AÑIL 3 28042,2019-05-16T00:00:00Z,"ACB"
109189,Valdefuentes,https://wikidata.org/entity/Q10388714,Hortaleza,https://wikidata.org/entity/Q1928529,40.4879321,-3.64534957,AVENIDA NICETO ALCALA ZAMORA 12 28050,2019-09-11T00:00:00Z,"ACB"
109192,Valdefuentes,https://wikidata.org/entity/Q10388714,Hortaleza,https://wikidata.org/entity/Q1928529,40.47944973,-3.62633523,CALLE PROVISIONAL CARCAVAS OESTE UNO 8 28055,2019-10-21T00:00:00Z,"ACB"
109194,Valdefuentes,https://wikidata.org/entity/Q10388714,Hortaleza,https://wikidata.org/entity/Q1928529,40.48027969,-3.62783766,CALLE JUAN DANIEL FULLAONDO 16 28055,2022-09-20T00:00:00Z,"ACB"
113758,Rejas,https://wikidata.org/entity/Q10359029,San Blas-Canillejas,https://wikidata.org/entity/Q2001937,40.44529072,-3.59163039,CALLE EUTERPE 17 28022,2022-06-07T00:00:00Z,"ACB"
113756,Rejas,https://wikidata.org/entity/Q10359029,San Blas-Canillejas,https://wikidata.org/entity/Q2001937,40.44700216,-3.59156061,CALLE EUTERPE 1 28022,2022-06-07T00:00:00Z,"ACB"
113759,Rejas,https://wikidata.org/entity/Q10359029,San Blas-Canillejas,https://wikidata.org/entity/Q2001937,40.44405857,-3.59224231,CALLE EUTERPE 27 28022,2022-09-22T00:00:00Z,"ACB"
109204,Valdefuentes,https://wikidata.org/entity/Q10388714,Hortaleza,https://wikidata.org/entity/Q1928529,40.48126134,-3.62717889,CALLE EMMA PENELLA 18 28055,2022-06-07T00:00:00Z,"ACB"
113776,Rejas,https://wikidata.org/entity/Q10359029,San Blas-Canillejas,https://wikidata.org/entity/Q2001937,40.44875444,-3.59721507,AVENIDA SEXTA 6 28022,2019-08-12T00:00:00Z,"ACB"
113768,Rejas,https://wikidata.org/entity/Q10359029,San Blas-Canillejas,https://wikidata.org/entity/Q2001937,40.44325765,-3.57697986,CALLE ARCAUTE 4 28022,2019-12-23T00:00:00Z,"ACB"
113782,Canillejas,https://wikidata.org/entity/Q663013,San Blas-Canillejas,https://wikidata.org/entity/Q2001937,40.44709279,-3.60592187,CALLE SAN VENANCIO 34 28022,2022-08-17T00:00:00Z,"ACB"
113783,Canillejas,https://wikidata.org/entity/Q663013,San Blas-Canillejas,https://wikidata.org/entity/Q2001937,40.44710019,-3.60587331,CALLE MEQUINENZA 24 28022,2019-03-25T00:00:00Z,"ACB"
113790,Rosas,https://wikidata.org/entity/Q18880469,San Blas-Canillejas,https://wikidata.org/entity/Q2001937,40.42639814,-3.61027495,AVENIDA CANILLEJAS A VICALVARO 135 28022,2019-05-23T00:00:00Z,"ACB"
163182,Legazpi,https://wikidata.org/entity/Q3773990,Arganzuela,https://wikidata.org/entity/Q2000929,40.39297515,-3.68866604,CALLE BRONCE 1A 28045,1900-01-01T00:00:00Z,"MU-51"
212291,Mirasierra,https://wikidata.org/entity/Q31134,Fuencarral-El Pardo,https://wikidata.org/entity/Q656196,40.49566796,-3.71862248,AVENIDA VENTISQUERO DE LA CONDESA 50 28035,2022-10-13T00:00:00Z,"AP-2"
242109,Palomeras Sureste,https://wikidata.org/entity/Q10343901,Puente de Vallecas,https://wikidata.org/entity/Q2003054,40.39048518,-3.63794305,CALLE ANDALUCES 20 28038,2018-11-30T00:00:00Z,"MU-51"
242123,Palomeras Sureste,https://wikidata.org/entity/Q10343901,Puente de Vallecas,https://wikidata.org/entity/Q2003054,40.38825214,-3.63513695,AVENIDA MIGUEL HERNANDEZ 48 28038,1900-01-01T00:00:00Z,"MU-51"
242229,Portazgo,https://wikidata.org/entity/Q18005921,Puente de Vallecas,https://wikidata.org/entity/Q2003054,40.3920382,-3.64873802,CALLE CARLOS SOLE 13 28038,1900-01-01T00:00:00Z,"MU-51"
242275,Palomeras Sureste,https://wikidata.org/entity/Q10343901,Puente de Vallecas,https://wikidata.org/entity/Q2003054,40.38749418,-3.63989595,AVENIDA ALBUFERA 287 28038,1900-01-01T00:00:00Z,"MU-51"
242304,Palomeras Sureste,https://wikidata.org/entity/Q10343901,Puente de Vallecas,https://wikidata.org/entity/Q2003054,40.39172519,-3.63854895,CALLE ANTONIO MAIRENA 23 28038,1900-01-01T00:00:00Z,"MU-51"
243704,Casco Histórico de Vicálvaro,https://wikidata.org/entity/Q16544374,Vicálvaro,https://wikidata.org/entity/Q589403,40.40897417,-3.61399796,CALLE CASALARREINA 28 28032,2023-03-08T00:00:00Z,"MU-51"
243974,Pavones,https://wikidata.org/entity/Q71760,Moratalaz,https://wikidata.org/entity/Q2076109,40.39730116,-3.63398599,CALLE VALDEBERNARDO 1 28030,1900-01-01T00:00:00Z,"MU-51"
243972,Pavones,https://wikidata.org/entity/Q71760,Moratalaz,https://wikidata.org/entity/Q2076109,40.39630216,-3.63278096,CALLE ENCOMIENDA DE PALACIOS 239 28030,1900-01-01T00:00:00Z,"MU-51"
244703,Fontarrón,https://wikidata.org/entity/Q10283284,Moratalaz,https://wikidata.org/entity/Q2076109,40.40054014,-3.64082797,CALLE ENCOMIENDA DE PALACIOS 85 28030,1900-01-01T00:00:00Z,"MU-51"
245721,Valderrivas,https://wikidata.org/entity/Q43025770,Vicálvaro,https://wikidata.org/entity/Q589403,40.39716217,-3.60743194,CALLE MARMOLINA 5 28032,1900-01-01T00:00:00Z,"MU-51"
245810,Casco Histórico de Vicálvaro,https://wikidata.org/entity/Q16544374,Vicálvaro,https://wikidata.org/entity/Q589403,40.40391113,-3.60391099,CALLE SAN CIPRIANO 46 28032,1900-01-01T00:00:00Z,"MU-51"
246477,Palomeras Sureste,https://wikidata.org/entity/Q10343901,Puente de Vallecas,https://wikidata.org/entity/Q2003054,40.3804502,-3.64678295,CALLE LEONESES 23 28018,1900-01-01T00:00:00Z,"ACB"
248380,Numancia,https://wikidata.org/entity/Q10338144,Puente de Vallecas,https://wikidata.org/entity/Q2003054,40.39374918,-3.65537305,CALLE RISCO DE PELOCHE 15 28038,2021-12-21T00:00:00Z,"MU-51"
248586,Valdebernardo,https://wikidata.org/entity/Q43025212,Vicálvaro,https://wikidata.org/entity/Q589403,40.40448021,-3.62263301,CALLE LADERA DE LOS ALMENDROS 2 28032,1900-01-01T00:00:00Z,"MU-51"
248796,Palomeras Bajas,https://wikidata.org/entity/Q10343902,Puente de Vallecas,https://wikidata.org/entity/Q2003054,40.39131714,-3.66011504,CALLE PAYASO FOFO 20 28018,2017-10-19T00:00:00Z,"MU-51"
253476,Valdebernardo,https://wikidata.org/entity/Q43025212,Vicálvaro,https://wikidata.org/entity/Q589403,40.40207318,-3.62100402,BULEVAR INDALECIO PRIETO 16 28032,1900-01-01T00:00:00Z,"MU-51"
253926,Casco Histórico de Vicálvaro,https://wikidata.org/entity/Q16544374,Vicálvaro,https://wikidata.org/entity/Q589403,40.40547221,-3.60862103,CALLE VILLARDONDIEGO 34 28032,1900-01-01T00:00:00Z,"MU-51"
254172,Casco Histórico de Vicálvaro,https://wikidata.org/entity/Q16544374,Vicálvaro,https://wikidata.org/entity/Q589403,40.4104922,-3.61069897,CALLE LARDERO 2 28032,1900-01-01T00:00:00Z,"MU-51"
257800,Palomeras Bajas,https://wikidata.org/entity/Q10343902,Puente de Vallecas,https://wikidata.org/entity/Q2003054,40.37886518,-3.65420603,CALLE TRISTANA 10 28018,1900-01-01T00:00:00Z,"MU-51"
259524,Casco Histórico de Vicálvaro,https://wikidata.org/entity/Q16544374,Vicálvaro,https://wikidata.org/entity/Q589403,40.41046519,-3.61363895,CALLE EZCARAY 3 28032,1900-01-01T00:00:00Z,"MU-51"
260261,Palomeras Sureste,https://wikidata.org/entity/Q10343901,Puente de Vallecas,https://wikidata.org/entity/Q2003054,40.37971113,-3.65270902,AVENIDA BUENOS AIRES 99 28018,2017-10-17T00:00:00Z,"MU-51"
260289,Palomeras Bajas,https://wikidata.org/entity/Q10343902,Puente de Vallecas,https://wikidata.org/entity/Q2003054,40.38119614,-3.66203699,AVENIDA PABLO NERUDA 93 28018,2010-03-01T00:00:00Z,"MU-51"
260369,Numancia,https://wikidata.org/entity/Q10338144,Puente de Vallecas,https://wikidata.org/entity/Q2003054,40.40041019,-3.65869501,CALLE PUERTO DE CANENCIA 9 28038,1900-01-01T00:00:00Z,"MU-51"
260451,Palomeras Sureste,https://wikidata.org/entity/Q10343901,Puente de Vallecas,https://wikidata.org/entity/Q2003054,40.39239421,-3.64015996,CALLE ANTONIO MAIRENA 19B 28038,1900-01-01T00:00:00Z,"MU-51"
261983,Palomeras Bajas,https://wikidata.org/entity/Q10343902,Puente de Vallecas,https://wikidata.org/entity/Q2003054,40.39257419,-3.662303,CALLE PUERTO DE BAÑOS 2 28053,1900-01-01T00:00:00Z,"No especificado"
263668,San Diego,https://wikidata.org/entity/Q11946851,Puente de Vallecas,https://wikidata.org/entity/Q2003054,40.39507712,-3.67137501,CALLE PEÑA UBIÑA 6 28053,1900-01-01T00:00:00Z,"MU-51"
286879,Casco Histórico de Vallecas,https://wikidata.org/entity/Q16544370,Villa de Vallecas,https://wikidata.org/entity/Q1947988,40.3709122,-3.62167305,CALLE FUENTIDUEÑA 41 28031,1900-01-01T00:00:00Z,"MU-51"
287329,Casco Histórico de Vallecas,https://wikidata.org/entity/Q16544370,Villa de Vallecas,https://wikidata.org/entity/Q1947988,40.37715518,-3.62309397,CALLE PICO DE LA BRUJULA 2 28031,1900-01-01T00:00:00Z,"MU-51"
109161,Pinar del Rey,https://wikidata.org/entity/Q10349788,Hortaleza,https://wikidata.org/entity/Q1928529,40.47439598,-3.64108815,CALLE MAR AMARILLO 12 28033,2019-10-21T00:00:00Z,"ACB"
113777,Rosas,https://wikidata.org/entity/Q18880469,San Blas-Canillejas,https://wikidata.org/entity/Q2001937,40.4482047,-3.60403087,CALLE MEQUINENZA 16 28022,2019-08-12T00:00:00Z,"ACB"
113769,Rejas,https://wikidata.org/entity/Q10359029,San Blas-Canillejas,https://wikidata.org/entity/Q2001937,40.44371354,-3.58135919,CALLE SAMANIEGO 12 28022,2019-07-15T00:00:00Z,"ACB"
147561,La Guindalera,https://wikidata.org/entity/Q3814559,Salamanca,https://wikidata.org/entity/Q1773521,40.43685115,-3.66727697,AVENIDA CAMILO JOSE CELA 6 28028,1900-01-01T00:00:00Z,"MU-51"
131023,Recoletos,https://wikidata.org/entity/Q3814551,Salamanca,https://wikidata.org/entity/Q1773521,40.42029218,-3.68790604,PLAZA INDEPENDENCIA 6 28001,1900-01-01T00:00:00Z,"MU-51"
172912,Las Delicias,https://wikidata.org/entity/Q3773736,Arganzuela,https://wikidata.org/entity/Q2000929,40.39910216,-3.68778399,CALLE RAMIREZ DE PRADO 6B 28045,1900-01-01T00:00:00Z,"MU-51"
232890,Aluche,https://wikidata.org/entity/Q31140,Latina,https://wikidata.org/entity/Q794954,40.38615148,-3.75979199,CALLE VALMOJADO 295 28047,2022-11-22T00:00:00Z,"MU-51"
212289,Peñagrande,https://wikidata.org/entity/Q3319582,Fuencarral-El Pardo,https://wikidata.org/entity/Q656196,40.48449247,-3.73436628,CALLE ROSALIA DE CASTRO 69 28035,2022-08-17T00:00:00Z,"MU-38"
243969,Pavones,https://wikidata.org/entity/Q71760,Moratalaz,https://wikidata.org/entity/Q2076109,40.39850313,-3.63293696,CALLE VALDEBERNARDO 3 28030,1900-01-01T00:00:00Z,"MU-51"
245389,Casco Histórico de Vicálvaro,https://wikidata.org/entity/Q16544374,Vicálvaro,https://wikidata.org/entity/Q589403,40.4054552,-3.60861805,CALLE VILLARDONDIEGO 36 28032,1900-01-01T00:00:00Z,"MU-51"
247920,Numancia,https://wikidata.org/entity/Q10338144,Puente de Vallecas,https://wikidata.org/entity/Q2003054,40.39901813,-3.64889104,CALLE EL BOSCO 22 28038,1900-01-01T00:00:00Z,"MU-51"
248039,Palomeras Bajas,https://wikidata.org/entity/Q10343902,Puente de Vallecas,https://wikidata.org/entity/Q2003054,40.37830518,-3.66046701,CALLE PUERTO DE BALBARAN 127 28018,1900-01-01T00:00:00Z,"MU-51"
248675,Valdebernardo,https://wikidata.org/entity/Q43025212,Vicálvaro,https://wikidata.org/entity/Q589403,40.40500518,-3.61937695,BULEVAR INDALECIO PRIETO 3 28032,1900-01-01T00:00:00Z,"MU-51"
249398,Palomeras Bajas,https://wikidata.org/entity/Q10343902,Puente de Vallecas,https://wikidata.org/entity/Q2003054,40.38125518,-3.65984105,AVENIDA PABLO NERUDA 89B 28018,1900-01-01T00:00:00Z,"MU-51"
249512,Palomeras Sureste,https://wikidata.org/entity/Q10343901,Puente de Vallecas,https://wikidata.org/entity/Q2003054,40.38879021,-3.63429204,AVENIDA MIGUEL HERNANDEZ 11 28038,2018-11-29T00:00:00Z,"ACB"
253255,Palomeras Sureste,https://wikidata.org/entity/Q10343901,Puente de Vallecas,https://wikidata.org/entity/Q2003054,40.38315317,-3.64249199,CALLE ASTURIANOS 2 28018,2022-09-29T00:00:00Z,"MU-51"
253403,Casco Histórico de Vicálvaro,https://wikidata.org/entity/Q16544374,Vicálvaro,https://wikidata.org/entity/Q589403,40.4090762,-3.60351696,PASEO POLIDEPORTIVO 3 28032,1900-01-01T00:00:00Z,"MU-38"
282119,Casco Histórico de Vicálvaro,https://wikidata.org/entity/Q16544374,Vicálvaro,https://wikidata.org/entity/Q589403,40.40809921,-3.61496502,CALLE CASALARREINA 29B 28032,2023-03-08T00:00:00Z,"MU-51"
258712,Valdebernardo,https://wikidata.org/entity/Q43025212,Vicálvaro,https://wikidata.org/entity/Q589403,40.39965916,-3.621296,BULEVAR INDALECIO PRIETO 21 28032,1900-01-01T00:00:00Z,"MU-51"
258895,Palomeras Bajas,https://wikidata.org/entity/Q10343902,Puente de Vallecas,https://wikidata.org/entity/Q2003054,40.38818821,-3.66156195,CALLE JAVIER DE MIGUEL 32 28018,2018-03-15T00:00:00Z,"MU-51"
260450,Entrevías,https://wikidata.org/entity/Q71756,Puente de Vallecas,https://wikidata.org/entity/Q2003054,40.37834118,-3.66379294,AVENIDA ENTREVIAS 92 28053,1900-01-01T00:00:00Z,"MU-38"
261221,Santa Eugenia,https://wikidata.org/entity/Q390463,Villa de Vallecas,https://wikidata.org/entity/Q1947988,40.38291814,-3.60464499,CALLE ZAZUAR 1A 28031,1900-01-01T00:00:00Z,"MU-51"
286882,Santa Eugenia,https://wikidata.org/entity/Q390463,Villa de Vallecas,https://wikidata.org/entity/Q1947988,40.38179413,-3.61645895,CALLE AGUSTIN GARCIA MALLA 4 28031,1900-01-01T00:00:00Z,"MU-51"
286944,Casco Histórico de Vallecas,https://wikidata.org/entity/Q16544370,Villa de Vallecas,https://wikidata.org/entity/Q1947988,40.37449815,-3.62352301,CALLE FUENTIDUEÑA 11 28031,1900-01-01T00:00:00Z,"MU-51"
287332,Casco Histórico de Vallecas,https://wikidata.org/entity/Q16544370,Villa de Vallecas,https://wikidata.org/entity/Q1947988,40.37715517,-3.62313002,CALLE PEÑA VEIGA 6 28031,1900-01-01T00:00:00Z,"MU-51"
287459,Casco Histórico de Vallecas,https://wikidata.org/entity/Q16544370,Villa de Vallecas,https://wikidata.org/entity/Q1947988,40.37978217,-3.62712403,CALLE SAN JAIME 46 28031,1900-01-01T00:00:00Z,"MU-51"
287460,Casco Histórico de Vallecas,https://wikidata.org/entity/Q16544370,Villa de Vallecas,https://wikidata.org/entity/Q1947988,40.37981819,-3.62707701,CALLE SAN JAIME 48 28031,1900-01-01T00:00:00Z,"MU-51"
109170,Pinar del Rey,https://wikidata.org/entity/Q10349788,Hortaleza,https://wikidata.org/entity/Q1928529,40.48054458,-3.6499635,CARRETERA ESTACION DE HORTALEZA 18 28033,2019-02-25T00:00:00Z,"ACB"
109200,Valdefuentes,https://wikidata.org/entity/Q10388714,Hortaleza,https://wikidata.org/entity/Q1928529,40.48058316,-3.62907008,CALLE LAVANDA 48 28055,2022-09-29T00:00:00Z,"ACB"
244260,San Diego,https://wikidata.org/entity/Q11946851,Puente de Vallecas,https://wikidata.org/entity/Q2003054,40.39578618,-3.66739894,CALLE PEÑA GORBEA 13 28053,2018-03-02T00:00:00Z,"MU-51"
248797,Palomeras Bajas,https://wikidata.org/entity/Q10343902,Puente de Vallecas,https://wikidata.org/entity/Q2003054,40.39131014,-3.66011097,CALLE PAYASO FOFO 7 28018,2017-10-19T00:00:00Z,"MU-51"
248799,Numancia,https://wikidata.org/entity/Q10338144,Puente de Vallecas,https://wikidata.org/entity/Q2003054,40.40229919,-3.65551194,CALLE MARISMAS 14C 28038,1900-01-01T00:00:00Z,"MU-51"
224507,El Goloso,https://wikidata.org/entity/Q10271137,Fuencarral-El Pardo,https://wikidata.org/entity/Q656196,40.508671,-3.70328267,AUTOVIA M-40 5600EX 28049,2022-11-15T00:00:00Z,"ACB"
250415,Santa Eugenia,https://wikidata.org/entity/Q390463,Villa de Vallecas,https://wikidata.org/entity/Q1947988,40.38095216,-3.61410196,CALLE ENRIQUE GARCIA ALVAREZ 6 28031,1900-01-01T00:00:00Z,"MU-51"
254784,Santa Eugenia,https://wikidata.org/entity/Q390463,Villa de Vallecas,https://wikidata.org/entity/Q1947988,40.38652416,-3.60879494,AVENIDA SANTA EUGENIA 1 28031,1900-01-01T00:00:00Z,"MU-51"
259065,Palomeras Bajas,https://wikidata.org/entity/Q10343902,Puente de Vallecas,https://wikidata.org/entity/Q2003054,40.38709713,-3.65932004,CALLE JAVIER DE MIGUEL 33A 28018,1900-01-01T00:00:00Z,"MU-51"
260434,Casco Histórico de Vicálvaro,https://wikidata.org/entity/Q16544374,Vicálvaro,https://wikidata.org/entity/Q589403,40.40562317,-3.59959198,CALLE VILLABLANCA 81 28032,1900-01-01T00:00:00Z,"MU-51"
113755,Rejas,https://wikidata.org/entity/Q10359029,San Blas-Canillejas,https://wikidata.org/entity/Q2001937,40.44688442,-3.59155864,CALLE EUTERPE 5 28022,2019-08-12T00:00:00Z,"ACB"
113770,Rejas,https://wikidata.org/entity/Q10359029,San Blas-Canillejas,https://wikidata.org/entity/Q2001937,40.44591368,-3.57837057,CALLE LAGUARDIA 4 28022,2019-08-12T00:00:00Z,"ACB"
113771,Rejas,https://wikidata.org/entity/Q10359029,San Blas-Canillejas,https://wikidata.org/entity/Q2001937,40.44804106,-3.57707372,CALLE MIJANCAS 3 28022,2019-04-15T00:00:00Z,"ACB"
146877,Las Acacias,https://wikidata.org/entity/Q3319190,Arganzuela,https://wikidata.org/entity/Q2000929,40.39969417,-3.70493099,CALLE ARGANDA 42 28005,1900-01-01T00:00:00Z,"MU-51"
166073,Palos de la Frontera,https://wikidata.org/entity/Q521009,Arganzuela,https://wikidata.org/entity/Q2000929,40.40682215,-3.69569998,RONDA ATOCHA 17 28012,1900-01-01T00:00:00Z,"MU-51"
173966,Las Delicias,https://wikidata.org/entity/Q3773736,Arganzuela,https://wikidata.org/entity/Q2000929,40.40056013,-3.68904901,CALLE CANARIAS 76 28045,1900-01-01T00:00:00Z,"MU-51"
240975,Portazgo,https://wikidata.org/entity/Q18005921,Puente de Vallecas,https://wikidata.org/entity/Q2003054,40.39259021,-3.65032198,CALLE JOSE PAULETE 59 28038,1900-01-01T00:00:00Z,"MU-51"
259615,Palomeras Bajas,https://wikidata.org/entity/Q10343902,Puente de Vallecas,https://wikidata.org/entity/Q2003054,40.38028521,-3.66348699,AVENIDA PARQUE DE PALOMERAS BAJAS 13 28018,2017-10-18T00:00:00Z,"MU-51"
287954,Casco Histórico de Vallecas,https://wikidata.org/entity/Q16544370,Villa de Vallecas,https://wikidata.org/entity/Q1947988,40.37956316,-3.62312405,CALLE MANUEL VELEZ 10 28031,1900-01-01T00:00:00Z,"MU-51"
287991,Casco Histórico de Vallecas,https://wikidata.org/entity/Q16544370,Villa de Vallecas,https://wikidata.org/entity/Q1947988,40.37867021,-3.62229803,CALLE PUERTO DE SOMOSIERRA 9 28031,1900-01-01T00:00:00Z,"MU-51"
288267,Casco Histórico de Vallecas,https://wikidata.org/entity/Q16544370,Villa de Vallecas,https://wikidata.org/entity/Q1947988,40.37199318,-3.61863795,CALLE CONGOSTO 35 28031,1900-01-01T00:00:00Z,"MU-51"
288463,Casco Histórico de Vallecas,https://wikidata.org/entity/Q16544370,Villa de Vallecas,https://wikidata.org/entity/Q1947988,40.37475818,-3.62160898,CALLE LA REVOLTOSA 26 28031,1900-01-01T00:00:00Z,"MU-51"
288519,Casco Histórico de Vallecas,https://wikidata.org/entity/Q16544370,Villa de Vallecas,https://wikidata.org/entity/Q1947988,40.37354914,-3.62290103,CALLE FUENTIDUEÑA 19 28031,1900-01-01T00:00:00Z,"MU-51"
289114,Casco Histórico de Vicálvaro,https://wikidata.org/entity/Q16544374,Vicálvaro,https://wikidata.org/entity/Q589403,40.40514917,-3.60554496,CALLE MERCURIO 20 28032,1900-01-01T00:00:00Z,"MU-51"
289286,Casco Histórico de Vallecas,https://wikidata.org/entity/Q16544370,Villa de Vallecas,https://wikidata.org/entity/Q1947988,40.37696119,-3.61962697,CALLE MONTES DE BARBANZA 25 28031,2018-08-20T00:00:00Z,"MU-51"
289435,Santa Eugenia,https://wikidata.org/entity/Q390463,Villa de Vallecas,https://wikidata.org/entity/Q1947988,40.3798192,-3.61666996,CALLE REAL DE ARGANDA 39 28031,1900-01-01T00:00:00Z,"AP-2"
289643,Santa Eugenia,https://wikidata.org/entity/Q390463,Villa de Vallecas,https://wikidata.org/entity/Q1947988,40.38129321,-3.61154202,CALLE PUENTELARRA 25 28031,1900-01-01T00:00:00Z,"MU-51"
290474,Casco Histórico de Vallecas,https://wikidata.org/entity/Q16544370,Villa de Vallecas,https://wikidata.org/entity/Q1947988,40.37687619,-3.62424196,CALLE SIERRA DE PALOMERAS 12B 28031,1900-01-01T00:00:00Z,"MU-51"
290771,Casco Histórico de Vallecas,https://wikidata.org/entity/Q16544370,Villa de Vallecas,https://wikidata.org/entity/Q1947988,40.38067318,-3.62402396,CALLE SIERRA GADOR 42 28031,1900-01-01T00:00:00Z,"MU-51"
264133,Ensanche de Vallecas,https://wikidata.org/entity/Q3847485,Villa de Vallecas,https://wikidata.org/entity/Q1947988,40.36915517,-3.61338497,CALLE PUENTEDEY 5F 28051,1900-01-01T00:00:00Z,"MU-38"
288855,Casco Histórico de Vallecas,https://wikidata.org/entity/Q16544370,Villa de Vallecas,https://wikidata.org/entity/Q1947988,40.36985315,-3.62318502,CALLE HUELGA 6 28031,1900-01-01T00:00:00Z,"MU-51"
289042,Casco Histórico de Vallecas,https://wikidata.org/entity/Q16544370,Villa de Vallecas,https://wikidata.org/entity/Q1947988,40.37556415,-3.61672694,CAMINO SUERTE 46 28031,1900-01-01T00:00:00Z,"MU-51"
289115,Casco Histórico de Vallecas,https://wikidata.org/entity/Q16544370,Villa de Vallecas,https://wikidata.org/entity/Q1947988,40.37798614,-3.62258295,CALLE MONTE AYA 12 28031,1900-01-01T00:00:00Z,"MU-51"
268905,Casco Histórico de Vallecas,https://wikidata.org/entity/Q16544370,Villa de Vallecas,https://wikidata.org/entity/Q1947988,40.37841313,-3.61724698,CALLE PUERTO DE REINOSA 2 28031,1900-01-01T00:00:00Z,"MU-51"
295214,Santa Eugenia,https://wikidata.org/entity/Q390463,Villa de Vallecas,https://wikidata.org/entity/Q1947988,40.38254515,-3.61533894,CALLE ENRIQUE GARCIA ALVAREZ 11 28031,1900-01-01T00:00:00Z,"MU-51"
295619,Santa Eugenia,https://wikidata.org/entity/Q390463,Villa de Vallecas,https://wikidata.org/entity/Q1947988,40.38491216,-3.60420805,CALLE CERRO DE ALMODOVAR 5 28007,1900-01-01T00:00:00Z,"MU-51"
295816,Palomeras Sureste,https://wikidata.org/entity/Q10343901,Puente de Vallecas,https://wikidata.org/entity/Q2003054,40.38425921,-3.643092,CALLE EXTREMEÑOS 5 28018,1900-01-01T00:00:00Z,"MU-51"
295888,Santa Eugenia,https://wikidata.org/entity/Q390463,Villa de Vallecas,https://wikidata.org/entity/Q1947988,40.38160614,-3.60832196,CALLE ZAZUAR 17 28031,1900-01-01T00:00:00Z,"MU-51"
296062,Palomeras Sureste,https://wikidata.org/entity/Q10343901,Puente de Vallecas,https://wikidata.org/entity/Q2003054,40.38254214,-3.633663,CALLE TRANVIA DE ARGANDA 4 28031,1900-01-01T00:00:00Z,"MU-51"
296200,Entrevías,https://wikidata.org/entity/Q71756,Puente de Vallecas,https://wikidata.org/entity/Q2003054,40.3768562,-3.67171903,RONDA SUR 6 28053,1900-01-01T00:00:00Z,"MU-51"
296378,Numancia,https://wikidata.org/entity/Q10338144,Puente de Vallecas,https://wikidata.org/entity/Q2003054,40.40461221,-3.66208405,CALLE FILOSOFA SIMONE WEIL 6 28038,1900-01-01T00:00:00Z,"MU-51"
296406,Numancia,https://wikidata.org/entity/Q10338144,Puente de Vallecas,https://wikidata.org/entity/Q2003054,40.39854813,-3.66904602,AUTOVIA M-30 1000EX 28038,1900-01-01T00:00:00Z,"MU-51"
296456,Casco Histórico de Vallecas,https://wikidata.org/entity/Q16544370,Villa de Vallecas,https://wikidata.org/entity/Q1947988,40.3818362,-3.62443595,CALLE JESUS DEL PINO 32 28031,2023-06-21T00:00:00Z,"MU-51"
296499,Entrevías,https://wikidata.org/entity/Q71756,Puente de Vallecas,https://wikidata.org/entity/Q2003054,40.37578814,-3.65574605,CALLE PUERTO DE BALBARAN 10 28018,1900-01-01T00:00:00Z,"MU-51"
296789,Ensanche de Vallecas,https://wikidata.org/entity/Q3847485,Villa de Vallecas,https://wikidata.org/entity/Q1947988,40.36000319,-3.59313195,AVENIDA ENSANCHE DE VALLECAS 120F 28051,1900-01-01T00:00:00Z,"MU-51"
296860,Santa Eugenia,https://wikidata.org/entity/Q390463,Villa de Vallecas,https://wikidata.org/entity/Q1947988,40.38269016,-3.60287803,CALLE CERRO DE ALMODOVAR 4 28031,1900-01-01T00:00:00Z,"MU-51"
297190,Ensanche de Vallecas,https://wikidata.org/entity/Q3847485,Villa de Vallecas,https://wikidata.org/entity/Q1947988,40.36327814,-3.59960799,CALLE CAÑADA DEL SANTISIMO 45 28051,1900-01-01T00:00:00Z,"MU-51"
297308,Portazgo,https://wikidata.org/entity/Q18005921,Puente de Vallecas,https://wikidata.org/entity/Q2003054,40.38730821,-3.64863196,CALLE GUILLERMO PINGARRON 2 28018,1900-01-01T00:00:00Z,"MU-51"
297972,Pavones,https://wikidata.org/entity/Q71760,Moratalaz,https://wikidata.org/entity/Q2076109,40.40062121,-3.63532895,CALLE HACIENDA DE PAVONES 342 28030,1900-01-01T00:00:00Z,"MU-51"
298219,Media Legua,https://wikidata.org/entity/Q9031035,Moratalaz,https://wikidata.org/entity/Q2076109,40.40913517,-3.66072199,CALLE LITUANIA 7 28030,1900-01-01T00:00:00Z,"MU-51"
298489,Pavones,https://wikidata.org/entity/Q71760,Moratalaz,https://wikidata.org/entity/Q2076109,40.40153221,-3.63399799,CALLE HACIENDA DE PAVONES 223 28030,1900-01-01T00:00:00Z,"MU-51"
299581,Media Legua,https://wikidata.org/entity/Q9031035,Moratalaz,https://wikidata.org/entity/Q2076109,40.41066613,-3.66044597,CALLE CAMINO DE LOS VINATEROS 1 28030,1900-01-01T00:00:00Z,"MU-51"
299743,Pavones,https://wikidata.org/entity/Q71760,Moratalaz,https://wikidata.org/entity/Q2076109,40.39853518,-3.63699301,CALLE FUENTE CARRANTONA 8 28030,1900-01-01T00:00:00Z,"MU-51"
303764,Media Legua,https://wikidata.org/entity/Q9031035,Moratalaz,https://wikidata.org/entity/Q2076109,40.41253316,-3.65812501,CALLE CORREGIDOR DIEGO DE VALDERRABANO 35 28030,1900-01-01T00:00:00Z,"MU-51"
303827,Marroquina,https://wikidata.org/entity/Q11935636,Moratalaz,https://wikidata.org/entity/Q2076109,40.40607213,-3.63865305,CALLE MARIO CABRE 2 28030,1900-01-01T00:00:00Z,"MU-51"
304566,Horcajo,https://wikidata.org/entity/Q10293641,Moratalaz,https://wikidata.org/entity/Q2076109,40.4121242,-3.62835104,CALLE FUENTE CARRANTONA 61 28030,1900-01-01T00:00:00Z,"ACB"
304822,Pavones,https://wikidata.org/entity/Q71760,Moratalaz,https://wikidata.org/entity/Q2076109,40.39916115,-3.62788205,CALLE BRUJAS 34 28030,1900-01-01T00:00:00Z,"ACB"
305321,Horcajo,https://wikidata.org/entity/Q10293641,Moratalaz,https://wikidata.org/entity/Q2076109,40.40845719,-3.62787898,CALLE RABAT 12 28030,1900-01-01T00:00:00Z,"MU-38"
305698,Fontarrón,https://wikidata.org/entity/Q10283284,Moratalaz,https://wikidata.org/entity/Q2076109,40.40159819,-3.64597197,CALLE CORREGIDOR JUAN FRANCISCO DE LUJAN 108 28030,1900-01-01T00:00:00Z,"MU-51"
305797,Fontarrón,https://wikidata.org/entity/Q10283284,Moratalaz,https://wikidata.org/entity/Q2076109,40.39824413,-3.64385195,CALLE ARROYO FONTARRON 201 28030,1900-01-01T00:00:00Z,"MU-51"
306067,Media Legua,https://wikidata.org/entity/Q9031035,Moratalaz,https://wikidata.org/entity/Q2076109,40.40738219,-3.65741803,AVENIDA MORATALAZ 51 28030,1900-01-01T00:00:00Z,"MU-51"
306214,Media Legua,https://wikidata.org/entity/Q9031035,Moratalaz,https://wikidata.org/entity/Q2076109,40.41313715,-3.65537595,CALLE ARROYO DE LA MEDIA LEGUA 51 28030,1900-01-01T00:00:00Z,"MU-51"
306531,Pavones,https://wikidata.org/entity/Q71760,Moratalaz,https://wikidata.org/entity/Q2076109,40.40377015,-3.62810695,CALLE LUIS DE HOYOS SAINZ 170 28030,1900-01-01T00:00:00Z,"MU-51"
319758,Buenavista,https://wikidata.org/entity/Q953929,Carabanchel,https://wikidata.org/entity/Q1001991,40.36716618,-3.74609897,CALLE CIDRO 10 28044,1900-01-01T00:00:00Z,"MU-38"
321048,Buenavista,https://wikidata.org/entity/Q953929,Carabanchel,https://wikidata.org/entity/Q1001991,40.3733522,-3.73779901,AVENIDA POBLADOS 104 28054,2021-12-04T00:00:00Z,"ACB"
324132,Buenavista,https://wikidata.org/entity/Q953929,Carabanchel,https://wikidata.org/entity/Q1001991,40.36865517,-3.75431302,CALLE ALFREDO ALEIX 12 28044,1900-01-01T00:00:00Z,"MU-51"
355837,Pradolongo,https://wikidata.org/entity/Q10352360,Usera,https://wikidata.org/entity/Q953368,40.38199821,-3.71074498,AVENIDA RAFAELA YBARRA 43 28026,2016-04-08T00:00:00Z,"MU-51"
355911,Moscardó,https://wikidata.org/entity/Q11937679,Usera,https://wikidata.org/entity/Q953368,40.38854717,-3.70404704,CALLE MIRASIERRA 35 28026,2016-05-23T00:00:00Z,"MU-51"
356208,El Zofío,https://wikidata.org/entity/Q71751,Usera,https://wikidata.org/entity/Q953368,40.3838342,-3.713506,CALLE CERECINOS 8 28026,2016-01-11T00:00:00Z,"MU-51"
356505,Orcasitas,https://wikidata.org/entity/Q3773941,Usera,https://wikidata.org/entity/Q953368,40.36700116,-3.70403598,CALLE CAMPOTEJAR 24 28041,2016-02-25T00:00:00Z,"MU-51"
356512,Orcasitas,https://wikidata.org/entity/Q3773941,Usera,https://wikidata.org/entity/Q953368,40.36964321,-3.708103,PLAZA ASOCIACION 1 28041,2016-02-19T00:00:00Z,"MU-51"
357032,El Zofío,https://wikidata.org/entity/Q71751,Usera,https://wikidata.org/entity/Q953368,40.37571317,-3.71240397,AVENIDA RAFAELA YBARRA 52 28026,2016-04-15T00:00:00Z,"MU-51"
357286,Orcasur,https://wikidata.org/entity/Q10341270,Usera,https://wikidata.org/entity/Q953368,40.37543514,-3.69604203,GLORIETA MALAGA 11 28041,1900-01-01T00:00:00Z,"MU-51"
357601,Moscardó,https://wikidata.org/entity/Q11937679,Usera,https://wikidata.org/entity/Q953368,40.39081321,-3.70375299,CALLE HERMENEGILDO BIELSA 2A 28026,2016-05-20T00:00:00Z,"MU-51"
357882,El Zofío,https://wikidata.org/entity/Q71751,Usera,https://wikidata.org/entity/Q953368,40.37600019,-3.71567295,CALLE AVENA 11 28026,2016-03-15T00:00:00Z,"MU-51"
358108,Orcasitas,https://wikidata.org/entity/Q3773941,Usera,https://wikidata.org/entity/Q953368,40.36632615,-3.71089198,CALLE DODGE 2B 28041,2016-02-04T00:00:00Z,"MU-51"
358370,Orcasur,https://wikidata.org/entity/Q10341270,Usera,https://wikidata.org/entity/Q953368,40.36842419,-3.69815999,CALLE MOREJA 28 28041,2016-02-25T00:00:00Z,"MU-51"
358391,Orcasur,https://wikidata.org/entity/Q10341270,Usera,https://wikidata.org/entity/Q953368,40.37024514,-3.70070205,AVENIDA ORCASUR 7 28041,2016-02-25T00:00:00Z,"MU-51"
358484,Orcasur,https://wikidata.org/entity/Q10341270,Usera,https://wikidata.org/entity/Q953368,40.36821412,-3.70010705,AVENIDA ORCASUR 60 28041,2016-02-26T00:00:00Z,"MU-51"
289829,Ensanche de Vallecas,https://wikidata.org/entity/Q3847485,Villa de Vallecas,https://wikidata.org/entity/Q1947988,40.36926815,-3.61266996,CALLE PUENTEDEY 5D 28051,1900-01-01T00:00:00Z,"MU-51"
270474,Entrevías,https://wikidata.org/entity/Q71756,Puente de Vallecas,https://wikidata.org/entity/Q2003054,40.37449119,-3.65555396,CALLE PADRE LLANOS 5 28053,1900-01-01T00:00:00Z,"ACB"
294044,Ensanche de Vallecas,https://wikidata.org/entity/Q3847485,Villa de Vallecas,https://wikidata.org/entity/Q1947988,40.36897219,-3.61717898,AVENIDA CERRO MILANO 3 28051,1900-01-01T00:00:00Z,"MU-38"
294569,Vinateros,https://wikidata.org/entity/Q10391533,Moratalaz,https://wikidata.org/entity/Q2076109,40.40396721,-3.63689502,CALLE LUIS DE HOYOS SAINZ 86 28030,1900-01-01T00:00:00Z,"MU-51"
295164,Valdebernardo,https://wikidata.org/entity/Q43025212,Vicálvaro,https://wikidata.org/entity/Q589403,40.40271318,-3.61765897,CALLE CORDEL DE PAVONES 2 28032,1900-01-01T00:00:00Z,"MU-51"
295317,Valdebernardo,https://wikidata.org/entity/Q43025212,Vicálvaro,https://wikidata.org/entity/Q589403,40.4042082,-3.61918097,BULEVAR INDALECIO PRIETO 7 28032,1900-01-01T00:00:00Z,"MU-51"
295446,Palomeras Bajas,https://wikidata.org/entity/Q10343902,Puente de Vallecas,https://wikidata.org/entity/Q2003054,40.37899717,-3.66163296,CALLE ROMEO Y JULIETA 13 28018,1900-01-01T00:00:00Z,"MU-51"
295509,Numancia,https://wikidata.org/entity/Q10338144,Puente de Vallecas,https://wikidata.org/entity/Q2003054,40.39700116,-3.65512496,CALLE BENJAMIN PALENCIA 2 28038,1900-01-01T00:00:00Z,"MU-51"
295624,Santa Eugenia,https://wikidata.org/entity/Q390463,Villa de Vallecas,https://wikidata.org/entity/Q1947988,40.38555818,-3.60476402,CALLE CERRO DE ALMODOVAR 3 28007,1900-01-01T00:00:00Z,"MU-51"
296404,Casco Histórico de Vicálvaro,https://wikidata.org/entity/Q16544374,Vicálvaro,https://wikidata.org/entity/Q589403,40.40695016,-3.59867896,CALLE SEPIOLITA 6 28032,1900-01-01T00:00:00Z,"MU-51"
297357,Casco Histórico de Vallecas,https://wikidata.org/entity/Q16544370,Villa de Vallecas,https://wikidata.org/entity/Q1947988,40.37896017,-3.621334,PASEO FEDERICO GARCIA LORCA 12 28031,1900-01-01T00:00:00Z,"MU-51"
297362,Entrevías,https://wikidata.org/entity/Q71756,Puente de Vallecas,https://wikidata.org/entity/Q2003054,40.37366017,-3.66043497,CALLE VECINOS DEL POZO 9 28053,1900-01-01T00:00:00Z,"MU-51"
297575,Entrevías,https://wikidata.org/entity/Q71756,Puente de Vallecas,https://wikidata.org/entity/Q2003054,40.3866952,-3.67138202,AVENIDA ENTREVIAS 24 28053,1900-01-01T00:00:00Z,"MU-51"
298690,Pavones,https://wikidata.org/entity/Q71760,Moratalaz,https://wikidata.org/entity/Q2076109,40.39882213,-3.63247802,CALLE VALDEBERNARDO 2 28030,1900-01-01T00:00:00Z,"MU-51"
299318,Vinateros,https://wikidata.org/entity/Q10391533,Moratalaz,https://wikidata.org/entity/Q2076109,40.40700314,-3.64415603,CALLE CAMINO DE LOS VINATEROS 119 28030,1900-01-01T00:00:00Z,"MU-51"
302219,Marroquina,https://wikidata.org/entity/Q11935636,Moratalaz,https://wikidata.org/entity/Q2076109,40.41089414,-3.64785196,CALLE CORREGIDOR JOSE DE PASAMONTE 17 28030,1900-01-01T00:00:00Z,"MU-51"
300622,Marroquina,https://wikidata.org/entity/Q11935636,Moratalaz,https://wikidata.org/entity/Q2076109,40.41233714,-3.648459,AVENIDA DOCTOR GARCIA TAPIA 114 28030,1900-01-01T00:00:00Z,"MU-51"
303684,Vinateros,https://wikidata.org/entity/Q10391533,Moratalaz,https://wikidata.org/entity/Q2076109,40.4037102,-3.64380598,CALLE HACIENDA DE PAVONES 105 28030,1900-01-01T00:00:00Z,"MU-51"
305799,Fontarrón,https://wikidata.org/entity/Q10283284,Moratalaz,https://wikidata.org/entity/Q2076109,40.39825313,-3.64383801,CALLE ARROYO FONTARRON 199 28030,1900-01-01T00:00:00Z,"MU-51"
324129,Buenavista,https://wikidata.org/entity/Q953929,Carabanchel,https://wikidata.org/entity/Q1001991,40.36865121,-3.75433901,CALLE ALFREDO ALEIX 16 28044,1900-01-01T00:00:00Z,"MU-51"
324210,Buenavista,https://wikidata.org/entity/Q953929,Carabanchel,https://wikidata.org/entity/Q1001991,40.37413815,-3.75339305,RONDA DON BOSCO 3 28044,2021-12-04T00:00:00Z,"MU-51"
324999,Buenavista,https://wikidata.org/entity/Q953929,Carabanchel,https://wikidata.org/entity/Q1001991,40.37334316,-3.72257995,AVENIDA POBLADOS 122 28054,2021-12-04T00:00:00Z,"MU-51"
325099,Buenavista,https://wikidata.org/entity/Q953929,Carabanchel,https://wikidata.org/entity/Q1001991,40.37249918,-3.76217104,CALLE JACOBEO 1 28054,1900-01-01T00:00:00Z,"MU-51"
325902,Puerta Bonita,https://wikidata.org/entity/Q3813762,Carabanchel,https://wikidata.org/entity/Q1001991,40.38528314,-3.73642398,CALLE GENERAL RICARDOS 177 28025,1900-01-01T00:00:00Z,"MU-51"
356658,Orcasitas,https://wikidata.org/entity/Q3773941,Usera,https://wikidata.org/entity/Q953368,40.37295018,-3.71246003,CALLE TOLOSA 24 28041,2016-02-16T00:00:00Z,"MU-51"
357748,Orcasur,https://wikidata.org/entity/Q10341270,Usera,https://wikidata.org/entity/Q953368,40.3699352,-3.69459896,AVENIDA PERLA 35 28041,2016-02-29T00:00:00Z,"MU-51"
290774,Casco Histórico de Vallecas,https://wikidata.org/entity/Q16544370,Villa de Vallecas,https://wikidata.org/entity/Q1947988,40.38067015,-3.62400202,CALLE SIERRA GADOR 44 28031,1900-01-01T00:00:00Z,"MU-51"
295220,Santa Eugenia,https://wikidata.org/entity/Q390463,Villa de Vallecas,https://wikidata.org/entity/Q1947988,40.38332019,-3.615139,CALLE ENRIQUE GARCIA ALVAREZ 18 28031,1900-01-01T00:00:00Z,"MU-51"
295368,Santa Eugenia,https://wikidata.org/entity/Q390463,Villa de Vallecas,https://wikidata.org/entity/Q1947988,40.38284319,-3.60578095,CALLE ZAZUAR 4B 28031,1900-01-01T00:00:00Z,"MU-51"
295375,Valderrivas,https://wikidata.org/entity/Q43025770,Vicálvaro,https://wikidata.org/entity/Q589403,40.3931822,-3.60647299,CALLE MINERVA 161 28032,1900-01-01T00:00:00Z,"MU-51"
296116,Santa Eugenia,https://wikidata.org/entity/Q390463,Villa de Vallecas,https://wikidata.org/entity/Q1947988,40.38651916,-3.60880303,AVENIDA SANTA EUGENIA 2 28031,1900-01-01T00:00:00Z,"MU-51"
296865,Santa Eugenia,https://wikidata.org/entity/Q390463,Villa de Vallecas,https://wikidata.org/entity/Q1947988,40.3826022,-3.60283094,CALLE CERRO DE ALMODOVAR 9 28007,1900-01-01T00:00:00Z,"MU-51"
297955,Pavones,https://wikidata.org/entity/Q71760,Moratalaz,https://wikidata.org/entity/Q2076109,40.39522714,-3.63344902,CALLE ARROYO FONTARRON 24 28030,1900-01-01T00:00:00Z,"MU-51"
299744,Pavones,https://wikidata.org/entity/Q71760,Moratalaz,https://wikidata.org/entity/Q2076109,40.39852819,-3.63696997,CALLE FUENTE CARRANTONA 6 28030,1900-01-01T00:00:00Z,"MU-51"
302698,Marroquina,https://wikidata.org/entity/Q11935636,Moratalaz,https://wikidata.org/entity/Q2076109,40.40955118,-3.64988603,CALLE CAMINO DE LOS VINATEROS 104 28030,1900-01-01T00:00:00Z,"MU-51"
300542,Marroquina,https://wikidata.org/entity/Q11935636,Moratalaz,https://wikidata.org/entity/Q2076109,40.40674417,-3.63777798,CALLE MOLINA DE SEGURA 6 28030,1900-01-01T00:00:00Z,"MU-51"
303682,Vinateros,https://wikidata.org/entity/Q10391533,Moratalaz,https://wikidata.org/entity/Q2076109,40.40370114,-3.64381497,CALLE HACIENDA DE PAVONES 107 28030,1900-01-01T00:00:00Z,"MU-51"
303762,Media Legua,https://wikidata.org/entity/Q9031035,Moratalaz,https://wikidata.org/entity/Q2076109,40.41275878,-3.65670837,AVENIDA DOCTOR GARCIA TAPIA 28 28030,1900-01-01T00:00:00Z,"MU-38"
304289,Fontarrón,https://wikidata.org/entity/Q10283284,Moratalaz,https://wikidata.org/entity/Q2076109,40.40537821,-3.65186501,PLAZA ENCUENTRO 4 28030,1900-01-01T00:00:00Z,"MU-51"
305736,Media Legua,https://wikidata.org/entity/Q9031035,Moratalaz,https://wikidata.org/entity/Q2076109,40.41439014,-3.656819,CALLE ALCALDE GARRIDO JUARISTI 13 28030,1900-01-01T00:00:00Z,"MU-51"
319759,Buenavista,https://wikidata.org/entity/Q953929,Carabanchel,https://wikidata.org/entity/Q1001991,40.36713716,-3.74600301,CALLE TULIPERO 12 28044,1900-01-01T00:00:00Z,"MU-38"
322083,Buenavista,https://wikidata.org/entity/Q953929,Carabanchel,https://wikidata.org/entity/Q1001991,40.37218914,-3.75854605,CALLE JOAQUIN TURINA 62 28044,1900-01-01T00:00:00Z,"MU-51"
325705,Buenavista,https://wikidata.org/entity/Q953929,Carabanchel,https://wikidata.org/entity/Q1001991,40.36040513,-3.75622199,CALLE MORALES 25C 28054,1900-01-01T00:00:00Z,"MU-51"
201809,El Plantío,https://wikidata.org/entity/Q3773742,Moncloa-Aravaca,https://wikidata.org/entity/Q2017682,40.46502872,-3.80797516,CALLE RAFAEL BOTI 64 28023,2021-11-16T00:00:00Z,"MU-51"
357189,El Zofío,https://wikidata.org/entity/Q71751,Usera,https://wikidata.org/entity/Q953368,40.38029018,-3.71805102,CALLE RICARDO BELTRAN Y ROZPIDE 14 28026,2016-04-08T00:00:00Z,"MU-51"
358289,Pradolongo,https://wikidata.org/entity/Q10352360,Usera,https://wikidata.org/entity/Q953368,40.38258116,-3.71108698,CALLE DOLORES BARRANCO 73 28026,2016-04-11T00:00:00Z,"MU-51"
358439,Orcasur,https://wikidata.org/entity/Q10341270,Usera,https://wikidata.org/entity/Q953368,40.36675518,-3.700852,PLAZA PUEBLO 2 28041,2016-02-25T00:00:00Z,"MU-51"
310469,Opañel,https://wikidata.org/entity/Q3813756,Carabanchel,https://wikidata.org/entity/Q1001991,40.38531613,-3.71818698,AVENIDA OPORTO 2 28019,1900-01-01T00:00:00Z,"MU-51"
326231,Puerta Bonita,https://wikidata.org/entity/Q3813762,Carabanchel,https://wikidata.org/entity/Q1001991,40.37975921,-3.74188098,PLAZA PARROQUIA 14 28025,1900-01-01T00:00:00Z,"MU-51"
295099,Casco Histórico de Vallecas,https://wikidata.org/entity/Q16544370,Villa de Vallecas,https://wikidata.org/entity/Q1947988,40.37522714,-3.62436197,CALLE VILLARINO DE LOS AIRES 14 28031,1900-01-01T00:00:00Z,"MU-51"
297975,Pavones,https://wikidata.org/entity/Q71760,Moratalaz,https://wikidata.org/entity/Q2076109,40.4006272,-3.63533596,CALLE HACIENDA DE PAVONES 340 28030,1900-01-01T00:00:00Z,"MU-51"
305737,Media Legua,https://wikidata.org/entity/Q9031035,Moratalaz,https://wikidata.org/entity/Q2076109,40.4143892,-3.65682594,CALLE ALCALDE GARRIDO JUARISTI 3 28030,1900-01-01T00:00:00Z,"MU-51"
321051,Buenavista,https://wikidata.org/entity/Q953929,Carabanchel,https://wikidata.org/entity/Q1001991,40.37335315,-3.73653297,AVENIDA POBLADOS 106 28054,2021-12-04T00:00:00Z,"MU-51"
355940,San Fermín,https://wikidata.org/entity/Q71758,Usera,https://wikidata.org/entity/Q953368,40.36879917,-3.68624699,CALLE TORROX 21 28041,2016-03-01T00:00:00Z,"MU-51"
326346,Puerta Bonita,https://wikidata.org/entity/Q3813762,Carabanchel,https://wikidata.org/entity/Q1001991,40.38071621,-3.74094502,PLAZA CARABANCHEL 4 28025,1900-01-01T00:00:00Z,"MU-51"
326401,Abrantes,https://wikidata.org/entity/Q3773949,Carabanchel,https://wikidata.org/entity/Q1001991,40.38228418,-3.72313694,CALLE VIA LUSITANA 3A 28025,2021-12-04T00:00:00Z,"MU-51"
327323,Vista Alegre,https://wikidata.org/entity/Q3813741,Carabanchel,https://wikidata.org/entity/Q1001991,40.38643214,-3.73982796,CALLE CASTROJERIZ 18 28025,1900-01-01T00:00:00Z,"MU-51"
329123,Los Rosales,https://wikidata.org/entity/Q10319807,Villaverde,https://wikidata.org/entity/Q919536,40.3595762,-3.69284703,CALLE TERTULIA 17 28041,1900-01-01T00:00:00Z,"MU-51"
326327,Opañel,https://wikidata.org/entity/Q3813756,Carabanchel,https://wikidata.org/entity/Q1001991,40.38863315,-3.72983295,CALLE RIO DE ORO 13 28019,1900-01-01T00:00:00Z,"MU-51"
327197,Abrantes,https://wikidata.org/entity/Q3773949,Carabanchel,https://wikidata.org/entity/Q1001991,40.38354914,-3.72052504,CALLE VIA LUSITANA 1 28025,1900-01-01T00:00:00Z,"MU-51"
327362,Puerta Bonita,https://wikidata.org/entity/Q3813762,Carabanchel,https://wikidata.org/entity/Q1001991,40.38357918,-3.74080898,CALLE BLASON 34 28025,1900-01-01T00:00:00Z,"MU-51"
330973,Los Ángeles,https://wikidata.org/entity/Q390462,Villaverde,https://wikidata.org/entity/Q919536,40.34870913,-3.69659204,CALLE ROMERAL 11 28021,1900-01-01T00:00:00Z,"MU-51"
330977,Los Ángeles,https://wikidata.org/entity/Q390462,Villaverde,https://wikidata.org/entity/Q919536,40.34859021,-3.69557404,CALLE PIMIENTA 18 28021,1900-01-01T00:00:00Z,"MU-51"
316570,Buenavista,https://wikidata.org/entity/Q953929,Carabanchel,https://wikidata.org/entity/Q1001991,40.36183418,-3.76397698,CALLE PATRIMONIO DE LA HUMANIDAD 37 28054,1900-01-01T00:00:00Z,"MU-38"
316612,Buenavista,https://wikidata.org/entity/Q953929,Carabanchel,https://wikidata.org/entity/Q1001991,40.3605582,-3.76027504,CALLE ATAPUERCA 5E 28054,2021-12-04T00:00:00Z,"MU-38"
326114,Abrantes,https://wikidata.org/entity/Q3773949,Carabanchel,https://wikidata.org/entity/Q1001991,40.37724321,-3.72920903,CALLE VIA LUSITANA 19 28025,2021-12-04T00:00:00Z,"MU-51"
334704,"Villaverde Alto, Casco Histórico de Villaverde",https://wikidata.org/entity/Q390435,Villaverde,https://wikidata.org/entity/Q919536,40.34800313,-3.71910795,PASEO PLATA Y CASTAÑAR 5 28021,1900-01-01T00:00:00Z,"MU-38"
334768,"Villaverde Alto, Casco Histórico de Villaverde",https://wikidata.org/entity/Q390435,Villaverde,https://wikidata.org/entity/Q919536,40.34619814,-3.71044995,PASEO ALBERTO PALACIOS 11 28021,1900-01-01T00:00:00Z,"AP-2"
336000,Los Ángeles,https://wikidata.org/entity/Q390462,Villaverde,https://wikidata.org/entity/Q919536,40.35064721,-3.695344,CALLE VIOLETAS 1 28021,1900-01-01T00:00:00Z,"MU-51"
349670,Almendrales,https://wikidata.org/entity/Q9604761,Usera,https://wikidata.org/entity/Q953368,40.38396421,-3.69784104,AVENIDA CORDOBA 21 28026,2016-05-30T00:00:00Z,"MU-51"
351418,Moscardó,https://wikidata.org/entity/Q11937679,Usera,https://wikidata.org/entity/Q953368,40.38917416,-3.70606396,CALLE ANDRES ARTEAGA 3 28026,2016-05-23T00:00:00Z,"MU-51"
352062,San Fermín,https://wikidata.org/entity/Q71758,Usera,https://wikidata.org/entity/Q953368,40.3756432,-3.69405703,CALLE SAN MAXIMO 4 28041,2015-12-10T00:00:00Z,"ACB"
340029,Los Rosales,https://wikidata.org/entity/Q10319807,Villaverde,https://wikidata.org/entity/Q919536,40.35961014,-3.68929402,AVENIDA OROVILLA 51 28041,1900-01-01T00:00:00Z,"MU-51"
340192,Los Rosales,https://wikidata.org/entity/Q10319807,Villaverde,https://wikidata.org/entity/Q919536,40.35666517,-3.69132703,CALLE CIUDADANIA 5 28041,1900-01-01T00:00:00Z,"MU-51"
340294,"Villaverde Alto, Casco Histórico de Villaverde",https://wikidata.org/entity/Q390435,Villaverde,https://wikidata.org/entity/Q919536,40.35012313,-3.70550804,CALLE ALCOCER 45B 28021,1900-01-01T00:00:00Z,"MU-51"
340428,Los Rosales,https://wikidata.org/entity/Q10319807,Villaverde,https://wikidata.org/entity/Q919536,40.36058517,-3.68626803,CALLE CONSENSO 5 28041,2021-12-04T00:00:00Z,"MU-51"
340432,San Cristóbal,https://wikidata.org/entity/Q390457,Villaverde,https://wikidata.org/entity/Q919536,40.34315115,-3.68712803,CALLE GODELLA 57 28021,1900-01-01T00:00:00Z,"MU-51"
340607,Los Rosales,https://wikidata.org/entity/Q10319807,Villaverde,https://wikidata.org/entity/Q919536,40.35645821,-3.68618697,CARRETERA VILLAVERDE A VALLECAS 38 28021,2021-12-04T00:00:00Z,"MU-51"
340776,Los Rosales,https://wikidata.org/entity/Q10319807,Villaverde,https://wikidata.org/entity/Q919536,40.35121215,-3.69259998,AVENIDA ANDALUCIA 45 28021,1900-01-01T00:00:00Z,"MU-51"
340785,Butarque,https://wikidata.org/entity/Q390453,Villaverde,https://wikidata.org/entity/Q919536,40.34405814,-3.67653095,CALLE BERROCAL 46 28021,1900-01-01T00:00:00Z,"MU-51"
340951,Butarque,https://wikidata.org/entity/Q390453,Villaverde,https://wikidata.org/entity/Q919536,40.35197816,-3.67779496,AVENIDA LOS ROSALES 131 28021,1900-01-01T00:00:00Z,"MU-51"
354284,Orcasitas,https://wikidata.org/entity/Q3773941,Usera,https://wikidata.org/entity/Q953368,40.36848116,-3.71895995,CALLE GAINZA 22 28041,2016-02-12T00:00:00Z,"MU-51"
354313,San Fermín,https://wikidata.org/entity/Q71758,Usera,https://wikidata.org/entity/Q953368,40.37456119,-3.69261695,CALLE ESTAFETA 2 28041,2016-02-26T00:00:00Z,"MU-51"
341877,"Villaverde Alto, Casco Histórico de Villaverde",https://wikidata.org/entity/Q390435,Villaverde,https://wikidata.org/entity/Q919536,40.3495912,-3.71004798,CALLE VILLALONSO 16 28021,1900-01-01T00:00:00Z,"MU-51"
354595,Moscardó,https://wikidata.org/entity/Q11937679,Usera,https://wikidata.org/entity/Q953368,40.38572314,-3.71688497,PLAZA FERNANDEZ LADREDA 1 28026,2016-05-05T00:00:00Z,"MU-51"
342204,Los Ángeles,https://wikidata.org/entity/Q390462,Villaverde,https://wikidata.org/entity/Q919536,40.35647617,-3.69433199,CALLE LOS BOHEMIOS 1 28041,1900-01-01T00:00:00Z,"MU-51"
342481,"Villaverde Alto, Casco Histórico de Villaverde",https://wikidata.org/entity/Q390435,Villaverde,https://wikidata.org/entity/Q919536,40.35056721,-3.71778902,PASEO PLATA Y CASTAÑAR 7 28021,1900-01-01T00:00:00Z,"MU-51"
342518,Los Ángeles,https://wikidata.org/entity/Q390462,Villaverde,https://wikidata.org/entity/Q919536,40.36171921,-3.70016104,CALLE LA CORTE DE FARAON 35 28041,1900-01-01T00:00:00Z,"MU-51"
342646,"Villaverde Alto, Casco Histórico de Villaverde",https://wikidata.org/entity/Q390435,Villaverde,https://wikidata.org/entity/Q919536,40.34615218,-3.710877,PASEO ALBERTO PALACIOS 15 28021,1900-01-01T00:00:00Z,"MU-51"
342904,"Villaverde Alto, Casco Histórico de Villaverde",https://wikidata.org/entity/Q390435,Villaverde,https://wikidata.org/entity/Q919536,40.34905121,-3.71134995,CALLE ARROYO BUENO 53 28021,1900-01-01T00:00:00Z,"MU-51"
343230,"Villaverde Alto, Casco Histórico de Villaverde",https://wikidata.org/entity/Q390435,Villaverde,https://wikidata.org/entity/Q919536,40.34836316,-3.71338605,CALLE JUAN PEÑALVER 8 28021,1900-01-01T00:00:00Z,"MU-51"
362655,Embajadores,https://wikidata.org/entity/Q2449844,Centro,https://wikidata.org/entity/Q1763376,40.40631219,-3.69969402,CALLE VALENCIA 30 28012,1900-01-01T00:00:00Z,"MU-51"
362929,Arapiles,https://wikidata.org/entity/Q10856744,Chamberí,https://wikidata.org/entity/Q1763370,40.43260517,-3.70537101,CALLE MAGALLANES 3 28015,1900-01-01T00:00:00Z,"MU-51"
363261,Palacio,https://wikidata.org/entity/Q2136510,Centro,https://wikidata.org/entity/Q1763376,40.41019719,-3.71404199,AVENIDA GRAN VIA DE SAN FRANCISCO 21 28005,1900-01-01T00:00:00Z,"MU-51"
364200,Universidad,https://wikidata.org/entity/Q10387767,Centro,https://wikidata.org/entity/Q1763376,40.42194418,-3.701012,CALLE FUENCARRAL 29 28004,1900-01-01T00:00:00Z,"MU-51"
364396,Palacio,https://wikidata.org/entity/Q2136510,Centro,https://wikidata.org/entity/Q1763376,40.41335921,-3.71038299,CALLE SEGOVIA 11 28005,1900-01-01T00:00:00Z,"MU-51"
364639,Castillejos,https://wikidata.org/entity/Q11913212,Tetuán,https://wikidata.org/entity/Q1773540,40.45699818,-3.69801398,CALLE INFANTA MERCEDES 47 28020,1900-01-01T00:00:00Z,"MU-51"
364813,Palacio,https://wikidata.org/entity/Q2136510,Centro,https://wikidata.org/entity/Q1763376,40.41520514,-3.71275797,CALLE MAYOR 86 28013,1900-01-01T00:00:00Z,"MU-51"
365077,Embajadores,https://wikidata.org/entity/Q2449844,Centro,https://wikidata.org/entity/Q1763376,40.41374617,-3.70468899,CALLE CONDE DE ROMANONES 3 28012,1900-01-01T00:00:00Z,"MU-51"
366317,Vallehermoso,https://wikidata.org/entity/Q6122685,Chamberí,https://wikidata.org/entity/Q1763370,40.44631512,-3.71250197,AVENIDA REINA VICTORIA 56 28003,1900-01-01T00:00:00Z,"MU-51"
366995,Vallehermoso,https://wikidata.org/entity/Q6122685,Chamberí,https://wikidata.org/entity/Q1763370,40.43886913,-3.70432295,CALLE BRAVO MURILLO 49A 28003,1900-01-01T00:00:00Z,"MU-51"
367292,Castillejos,https://wikidata.org/entity/Q11913212,Tetuán,https://wikidata.org/entity/Q1773540,40.45968019,-3.69906597,CALLE PENSAMIENTO 2 28020,1900-01-01T00:00:00Z,"MU-51"
367714,Embajadores,https://wikidata.org/entity/Q2449844,Centro,https://wikidata.org/entity/Q1763376,40.40836713,-3.69355196,CALLE SANTA ISABEL 57 28012,1900-01-01T00:00:00Z,"MU-51"
367795,Arapiles,https://wikidata.org/entity/Q10856744,Chamberí,https://wikidata.org/entity/Q1763370,40.43148818,-3.70897294,CALLE VALLEHERMOSO 15 28015,1900-01-01T00:00:00Z,"MU-51"
379507,Vallehermoso,https://wikidata.org/entity/Q6122685,Chamberí,https://wikidata.org/entity/Q1763370,40.44121817,-3.712154,CALLE MELQUIADES ALVAREZ 8 28003,1900-01-01T00:00:00Z,"MU-51"
368738,Berruguete,https://wikidata.org/entity/Q11909208,Tetuán,https://wikidata.org/entity/Q1773540,40.45933313,-3.70211901,CALLE HIERBABUENA 2 28039,1900-01-01T00:00:00Z,"MU-51"
369155,Bellas Vistas,https://wikidata.org/entity/Q11908929,Tetuán,https://wikidata.org/entity/Q1773540,40.45201719,-3.711287,AVENIDA PABLO IGLESIAS 64 28039,2012-06-30T00:00:00Z,"MU-51"
380213,Justicia,https://wikidata.org/entity/Q1992319,Centro,https://wikidata.org/entity/Q1763376,40.42112517,-3.69935199,PLAZA PEDRO ZEROLO 6 28004,1900-01-01T00:00:00Z,"MU-51"
369266,Palacio,https://wikidata.org/entity/Q2136510,Centro,https://wikidata.org/entity/Q1763376,40.41785317,-3.710456,CALLE VERGARA 3B 28013,1900-01-01T00:00:00Z,"MU-51"
380406,Argüelles,https://wikidata.org/entity/Q64874,Moncloa-Aravaca,https://wikidata.org/entity/Q2017682,40.42672916,-3.71546661,CALLE EVARISTO SAN MIGUEL 7 28008,2021-12-09T00:00:00Z,"MU-51"
380772,Ríos Rosas,https://wikidata.org/entity/Q10366270,Chamberí,https://wikidata.org/entity/Q1763370,40.44396319,-3.70251503,CALLE SANTA ENGRACIA 142 28003,1900-01-01T00:00:00Z,"MU-51"
372750,Arapiles,https://wikidata.org/entity/Q10856744,Chamberí,https://wikidata.org/entity/Q1763370,40.43315014,-3.707034,CALLE ARAPILES 10 28015,1900-01-01T00:00:00Z,"MU-51"
372888,Almagro,https://wikidata.org/entity/Q10954432,Chamberí,https://wikidata.org/entity/Q1763370,40.43517014,-3.69392102,PASEO GENERAL MARTINEZ CAMPOS 31 28010,1900-01-01T00:00:00Z,"MU-51"
381489,Ríos Rosas,https://wikidata.org/entity/Q10366270,Chamberí,https://wikidata.org/entity/Q1763370,40.4382492,-3.691115,PASEO CASTELLANA 53B 28046,1900-01-01T00:00:00Z,"MU-51"
382081,Universidad,https://wikidata.org/entity/Q10387767,Centro,https://wikidata.org/entity/Q1763376,40.43005318,-3.71154597,CALLE ALBERTO AGUILERA 23 28015,1900-01-01T00:00:00Z,"MU-51"
382362,Ríos Rosas,https://wikidata.org/entity/Q10366270,Chamberí,https://wikidata.org/entity/Q1763370,40.44205713,-3.70051494,CALLE RIOS ROSAS 21 28003,1900-01-01T00:00:00Z,"MU-51"
374218,Vallehermoso,https://wikidata.org/entity/Q6122685,Chamberí,https://wikidata.org/entity/Q1763370,40.44074714,-3.71106397,CALLE JESUS MAESTRO 3 28003,1900-01-01T00:00:00Z,"MU-51"
374574,Vallehermoso,https://wikidata.org/entity/Q6122685,Chamberí,https://wikidata.org/entity/Q1763370,40.44201814,-3.70501601,AVENIDA FILIPINAS 11 28003,1900-01-01T00:00:00Z,"MU-51"
383738,Vallehermoso,https://wikidata.org/entity/Q6122685,Chamberí,https://wikidata.org/entity/Q1763370,40.44660118,-3.70407395,CALLE BRAVO MURILLO 99 28003,1900-01-01T00:00:00Z,"MU-51"
326594,Abrantes,https://wikidata.org/entity/Q3773949,Carabanchel,https://wikidata.org/entity/Q1001991,40.37692518,-3.73443497,CALLE CAMINO VIEJO DE LEGANES 188 28025,2021-12-04T00:00:00Z,"MU-51"
327507,Puerta Bonita,https://wikidata.org/entity/Q3813762,Carabanchel,https://wikidata.org/entity/Q1001991,40.38066717,-3.74487604,CALLE EUGENIA DE MONTIJO 53 28025,1900-01-01T00:00:00Z,"MU-51"
327931,Puerta Bonita,https://wikidata.org/entity/Q3813762,Carabanchel,https://wikidata.org/entity/Q1001991,40.37664319,-3.74055195,CALLE NUESTRA SEÑORA DE LA ANTIGUA 52C 28025,1900-01-01T00:00:00Z,"MU-51"
315523,Abrantes,https://wikidata.org/entity/Q3773949,Carabanchel,https://wikidata.org/entity/Q1001991,40.38439612,-3.71866602,PLAZA FERNANDEZ LADREDA 3 28026,1900-01-01T00:00:00Z,"MU-38"
334558,"Villaverde Alto, Casco Histórico de Villaverde",https://wikidata.org/entity/Q390435,Villaverde,https://wikidata.org/entity/Q919536,40.3468252,-3.70865299,PLAZA AGATA 11 28021,1900-01-01T00:00:00Z,"MU-51"
350134,Pradolongo,https://wikidata.org/entity/Q10352360,Usera,https://wikidata.org/entity/Q953368,40.37249219,-3.70436499,ANILLO VERDE CICLISTA 23 28041,1900-01-01T00:00:00Z,"MU-38"
352419,San Fermín,https://wikidata.org/entity/Q71758,Usera,https://wikidata.org/entity/Q953368,40.37774516,-3.69058802,CAMINO PERALES 90 28041,2016-02-29T00:00:00Z,"ACB"
340068,"Villaverde Alto, Casco Histórico de Villaverde",https://wikidata.org/entity/Q390435,Villaverde,https://wikidata.org/entity/Q919536,40.33380414,-3.69818602,CALLE PRINCIPAL 1 28021,2021-12-04T00:00:00Z,"MU-51"
340296,"Villaverde Alto, Casco Histórico de Villaverde",https://wikidata.org/entity/Q390435,Villaverde,https://wikidata.org/entity/Q919536,40.35010018,-3.70556397,CALLE ALCOCER 45A 28021,1900-01-01T00:00:00Z,"MU-51"
340299,"Villaverde Alto, Casco Histórico de Villaverde",https://wikidata.org/entity/Q390435,Villaverde,https://wikidata.org/entity/Q919536,40.35012345,-3.70548485,CALLE ALCOCER 45 28041,2021-12-04T00:00:00Z,"MU-51"
340687,Los Rosales,https://wikidata.org/entity/Q10319807,Villaverde,https://wikidata.org/entity/Q919536,40.36240912,-3.68960601,AVENIDA OROVILLA 35 28041,1900-01-01T00:00:00Z,"MU-51"
340691,Los Rosales,https://wikidata.org/entity/Q10319807,Villaverde,https://wikidata.org/entity/Q919536,40.36156621,-3.68880799,CALLE UNANIMIDAD 13 28041,1900-01-01T00:00:00Z,"MU-51"
341514,San Cristóbal,https://wikidata.org/entity/Q390457,Villaverde,https://wikidata.org/entity/Q919536,40.34145821,-3.69005302,CALLE ROCAFORT 9 28021,2021-12-04T00:00:00Z,"MU-51"
354164,Orcasitas,https://wikidata.org/entity/Q3773941,Usera,https://wikidata.org/entity/Q953368,40.36887815,-3.714679,CALLE VILLABONA 4 28041,2016-02-11T00:00:00Z,"MU-51"
354332,San Fermín,https://wikidata.org/entity/Q71758,Usera,https://wikidata.org/entity/Q953368,40.37135918,-3.69181794,AVENIDA SAN FERMIN 5 28041,2016-03-01T00:00:00Z,"MU-51"
326326,Opañel,https://wikidata.org/entity/Q3813756,Carabanchel,https://wikidata.org/entity/Q1001991,40.38863017,-3.72982102,PLAZA GANDARA DE ORO 3 28019,1900-01-01T00:00:00Z,"MU-51"
326952,Vista Alegre,https://wikidata.org/entity/Q3813741,Carabanchel,https://wikidata.org/entity/Q1001991,40.38283521,-3.74290103,CALLE NUESTRA SEÑORA DE LA LUZ 11 28025,1900-01-01T00:00:00Z,"MU-51"
327363,Puerta Bonita,https://wikidata.org/entity/Q3813762,Carabanchel,https://wikidata.org/entity/Q1001991,40.38358218,-3.74080395,CALLE GENERAL RICARDOS 179B 28025,1900-01-01T00:00:00Z,"MU-51"
355011,Moscardó,https://wikidata.org/entity/Q11937679,Usera,https://wikidata.org/entity/Q953368,40.3870362,-3.70692197,CALLE AMPARO USERA 48 28026,2016-05-11T00:00:00Z,"MU-51"
343699,Los Ángeles,https://wikidata.org/entity/Q390462,Villaverde,https://wikidata.org/entity/Q919536,40.35278221,-3.69646497,CALLE ANOETA 14 28041,1900-01-01T00:00:00Z,"MU-51"
363052,Embajadores,https://wikidata.org/entity/Q2449844,Centro,https://wikidata.org/entity/Q1763376,40.40878516,-3.694511,CALLE SANTA ISABEL 53 28012,1900-01-01T00:00:00Z,"MU-51"
364232,Ríos Rosas,https://wikidata.org/entity/Q10366270,Chamberí,https://wikidata.org/entity/Q1763370,40.44537013,-3.701802,CALLE MAUDES 14 28003,1900-01-01T00:00:00Z,"MU-51"
367315,Palacio,https://wikidata.org/entity/Q2136510,Centro,https://wikidata.org/entity/Q1763376,40.41979019,-3.70809596,PLAZA SANTO DOMINGO 19 28013,1900-01-01T00:00:00Z,"MU-51"
367339,Palacio,https://wikidata.org/entity/Q2136510,Centro,https://wikidata.org/entity/Q1763376,40.4129052,-3.71179598,COSTANILLA SAN ANDRES 10 28005,1900-01-01T00:00:00Z,"MU-51"
378456,Universidad,https://wikidata.org/entity/Q10387767,Centro,https://wikidata.org/entity/Q1763376,40.42084521,-3.70385203,CALLE MESONERO ROMANOS 18 28004,1900-01-01T00:00:00Z,"MU-51"
369136,Trafalgar,https://wikidata.org/entity/Q10384027,Chamberí,https://wikidata.org/entity/Q1763370,40.4299072,-3.69668502,CALLE SANTA ENGRACIA 13 28010,1900-01-01T00:00:00Z,"MU-51"
380040,Argüelles,https://wikidata.org/entity/Q64874,Moncloa-Aravaca,https://wikidata.org/entity/Q2017682,40.43183241,-3.72069615,CALLE ROMERO ROBLEDO 15 28008,2021-12-09T00:00:00Z,"MU-51"
380507,Palacio,https://wikidata.org/entity/Q2136510,Centro,https://wikidata.org/entity/Q1763376,40.40763619,-3.71158703,CALLE PALOMA 39 28005,1900-01-01T00:00:00Z,"MU-51"
371245,Almagro,https://wikidata.org/entity/Q10954432,Chamberí,https://wikidata.org/entity/Q1763370,40.43674617,-3.69767998,CALLE GARCIA DE PAREDES 37 28010,2018-05-04T00:00:00Z,"MU-51"
380868,Ríos Rosas,https://wikidata.org/entity/Q10366270,Chamberí,https://wikidata.org/entity/Q1763370,40.43838717,-3.69616898,CALLE JOSE ABASCAL 41 28003,2022-02-17T00:00:00Z,"MU-51"
380891,Almagro,https://wikidata.org/entity/Q10954432,Chamberí,https://wikidata.org/entity/Q1763370,40.43357116,-3.69141998,CALLE MIGUEL ANGEL 1B 28010,1900-01-01T00:00:00Z,"MU-51"
371932,Vallehermoso,https://wikidata.org/entity/Q6122685,Chamberí,https://wikidata.org/entity/Q1763370,40.44494314,-3.704136,CALLE BRAVO MURILLO 85 28003,1900-01-01T00:00:00Z,"MU-51"
380947,Embajadores,https://wikidata.org/entity/Q2449844,Centro,https://wikidata.org/entity/Q1763376,40.40599715,-3.69954403,RONDA VALENCIA 2 28012,1900-01-01T00:00:00Z,"MU-51"
381195,Embajadores,https://wikidata.org/entity/Q2449844,Centro,https://wikidata.org/entity/Q1763376,40.40970014,-3.69662003,CALLE SANTA ISABEL 46 28012,1900-01-01T00:00:00Z,"MU-51"
381197,Berruguete,https://wikidata.org/entity/Q11909208,Tetuán,https://wikidata.org/entity/Q1773540,40.45749017,-3.70599198,CALLE AMBROSIO VALLEJO 2 28039,1900-01-01T00:00:00Z,"MU-51"
381956,Cortes,https://wikidata.org/entity/Q2535637,Centro,https://wikidata.org/entity/Q1763376,40.41908215,-3.69896594,CALLE CABALLERO DE GRACIA 15 28013,2013-10-30T00:00:00Z,"MU-51"
381988,Sol,https://wikidata.org/entity/Q2465181,Centro,https://wikidata.org/entity/Q1763376,40.4185942,-3.70670502,PLAZA SAN MARTIN 5 28013,1900-01-01T00:00:00Z,"MU-51"
382823,Valdeacederas,https://wikidata.org/entity/Q10388711,Tetuán,https://wikidata.org/entity/Q1773540,40.46309416,-3.70292496,CALLE MARQUES DE VIANA 56 28039,1900-01-01T00:00:00Z,"MU-51"
373942,Justicia,https://wikidata.org/entity/Q1992319,Centro,https://wikidata.org/entity/Q1763376,40.42305619,-3.69308794,CALLE MARQUES DE MONASTERIO 7 28004,1900-01-01T00:00:00Z,"MU-38"
327372,Vista Alegre,https://wikidata.org/entity/Q3813741,Carabanchel,https://wikidata.org/entity/Q1001991,40.38245717,-3.74651304,CALLE MONSEÑOR OSCAR ROMERO 41 28025,1900-01-01T00:00:00Z,"MU-51"
316571,Buenavista,https://wikidata.org/entity/Q953929,Carabanchel,https://wikidata.org/entity/Q1001991,40.36092917,-3.76529194,CALLE MORALES 33 28054,2021-12-04T00:00:00Z,"MU-38"
334544,San Cristóbal,https://wikidata.org/entity/Q390457,Villaverde,https://wikidata.org/entity/Q919536,40.34262213,-3.69140701,PLAZA PINAZO 9 28021,1900-01-01T00:00:00Z,"MU-38"
335002,Butarque,https://wikidata.org/entity/Q390453,Villaverde,https://wikidata.org/entity/Q919536,40.35272513,-3.67788404,AVENIDA LOS ROSALES 129 28021,2021-12-04T00:00:00Z,"MU-38"
349493,Pradolongo,https://wikidata.org/entity/Q10352360,Usera,https://wikidata.org/entity/Q953368,40.37261314,-3.70534794,AVENIDA POBLADOS 169 28041,2015-12-30T00:00:00Z,"MU-38"
339856,Los Rosales,https://wikidata.org/entity/Q10319807,Villaverde,https://wikidata.org/entity/Q919536,40.36293813,-3.69286296,CALLE TERTULIA 1 28041,1900-01-01T00:00:00Z,"MU-51"
340047,Butarque,https://wikidata.org/entity/Q390453,Villaverde,https://wikidata.org/entity/Q919536,40.34555916,-3.67526605,CALLE ESTEFANITA 7 28021,1900-01-01T00:00:00Z,"MU-51"
340784,Butarque,https://wikidata.org/entity/Q390453,Villaverde,https://wikidata.org/entity/Q919536,40.34406515,-3.67653396,CALLE BERROCAL 9 28021,1900-01-01T00:00:00Z,"MU-51"
354333,San Fermín,https://wikidata.org/entity/Q71758,Usera,https://wikidata.org/entity/Q953368,40.37136016,-3.69175999,CALLE TACONERA 47 28041,2016-03-01T00:00:00Z,"MU-51"
355012,Moscardó,https://wikidata.org/entity/Q11937679,Usera,https://wikidata.org/entity/Q953368,40.3870302,-3.70693004,CALLE AMPARO USERA 47 28026,2016-05-11T00:00:00Z,"MU-51"
362382,Embajadores,https://wikidata.org/entity/Q2449844,Centro,https://wikidata.org/entity/Q1763376,40.41393616,-3.70372204,CALLE DOCTOR CORTEZO 2 28012,1900-01-01T00:00:00Z,"MU-51"
343632,"Villaverde Alto, Casco Histórico de Villaverde",https://wikidata.org/entity/Q390435,Villaverde,https://wikidata.org/entity/Q919536,40.34162516,-3.71174196,CALLE DOMINGO PARRAGA 15 28021,1900-01-01T00:00:00Z,"MU-51"
364821,Gaztambide,https://wikidata.org/entity/Q10288587,Chamberí,https://wikidata.org/entity/Q1763370,40.43680116,-3.71295697,CALLE GUZMAN EL BUENO 75 28015,1900-01-01T00:00:00Z,"MU-51"
365536,Almagro,https://wikidata.org/entity/Q10954432,Chamberí,https://wikidata.org/entity/Q1763370,40.42891118,-3.69454104,CALLE ALMAGRO 7 28010,2022-02-17T00:00:00Z,"MU-51"
367911,Ríos Rosas,https://wikidata.org/entity/Q10366270,Chamberí,https://wikidata.org/entity/Q1763370,40.44179718,-3.69546296,CALLE RIOS ROSAS 57 28003,1900-01-01T00:00:00Z,"MU-51"
379319,Universidad,https://wikidata.org/entity/Q10387767,Centro,https://wikidata.org/entity/Q1763376,40.4232082,-3.70086999,CALLE FUENCARRAL 46 28004,1900-01-01T00:00:00Z,"MU-51"
379499,Vallehermoso,https://wikidata.org/entity/Q6122685,Chamberí,https://wikidata.org/entity/Q1763370,40.44279816,-3.705087,CALLE ESQUILACHE 2 28003,2022-02-17T00:00:00Z,"MU-51"
368930,Vallehermoso,https://wikidata.org/entity/Q6122685,Chamberí,https://wikidata.org/entity/Q1763370,40.43892217,-3.70901699,CALLE CEA BERMUDEZ 26 28003,1900-01-01T00:00:00Z,"MU-51"
380147,Justicia,https://wikidata.org/entity/Q1992319,Centro,https://wikidata.org/entity/Q1763376,40.42425613,-3.69698001,CALLE SAN GREGORIO 10 28004,1900-01-01T00:00:00Z,"MU-51"
370103,Almagro,https://wikidata.org/entity/Q10954432,Chamberí,https://wikidata.org/entity/Q1763370,40.43391919,-3.68876102,PASEO CASTELLANA 35 28046,1900-01-01T00:00:00Z,"MU-51"
380619,Vallehermoso,https://wikidata.org/entity/Q6122685,Chamberí,https://wikidata.org/entity/Q1763370,40.44537016,-3.70614698,CALLE MARQUES DE LEMA 7 28003,1900-01-01T00:00:00Z,"MU-51"
372490,Vallehermoso,https://wikidata.org/entity/Q6122685,Chamberí,https://wikidata.org/entity/Q1763370,40.44298618,-3.71914095,CALLE ISAAC PERAL 60 28040,1900-01-01T00:00:00Z,"MU-51"
381104,Arapiles,https://wikidata.org/entity/Q10856744,Chamberí,https://wikidata.org/entity/Q1763370,40.43213721,-3.70521297,CALLE SAN BERNARDO 107 28015,1900-01-01T00:00:00Z,"MU-51"
372726,Palacio,https://wikidata.org/entity/Q2136510,Centro,https://wikidata.org/entity/Q1763376,40.41807321,-3.70932304,PLAZA ISABEL II 8 28013,1900-01-01T00:00:00Z,"MU-51"
382330,Valdeacederas,https://wikidata.org/entity/Q10388711,Tetuán,https://wikidata.org/entity/Q1773540,40.46442617,-3.69655005,CALLE TORRIJOS 3 28039,2022-12-15T00:00:00Z,"MU-51"
382430,Trafalgar,https://wikidata.org/entity/Q10384027,Chamberí,https://wikidata.org/entity/Q1763370,40.43064221,-3.70316498,CALLE FUENCARRAL 123 28010,1900-01-01T00:00:00Z,"MU-51"
373343,Sol,https://wikidata.org/entity/Q2465181,Centro,https://wikidata.org/entity/Q1763376,40.41815213,-3.70680695,PLAZA SAN MARTIN 1 28013,1900-01-01T00:00:00Z,"MU-51"
383423,Universidad,https://wikidata.org/entity/Q10387767,Centro,https://wikidata.org/entity/Q1763376,40.42393213,-3.70225696,PLAZA SAN ILDEFONSO 2 28004,1900-01-01T00:00:00Z,"MU-51"
373913,Universidad,https://wikidata.org/entity/Q10387767,Centro,https://wikidata.org/entity/Q1763376,40.42087214,-3.70385302,CALLE MESONERO ROMANOS 17 28004,1900-01-01T00:00:00Z,"MU-51"
384068,Palacio,https://wikidata.org/entity/Q2136510,Centro,https://wikidata.org/entity/Q1763376,40.42000313,-3.70832298,CUESTA SANTO DOMINGO 24 28013,1900-01-01T00:00:00Z,"MU-51"
315860,Buenavista,https://wikidata.org/entity/Q953929,Carabanchel,https://wikidata.org/entity/Q1001991,40.36604516,-3.76313905,CALLE LONJA DE LA SEDA 41 28054,1900-01-01T00:00:00Z,"MU-38"
335003,Butarque,https://wikidata.org/entity/Q390453,Villaverde,https://wikidata.org/entity/Q919536,40.35305519,-3.67778301,AVENIDA LOS ROSALES 121 28021,2021-12-04T00:00:00Z,"MU-38"
340402,Los Rosales,https://wikidata.org/entity/Q10319807,Villaverde,https://wikidata.org/entity/Q919536,40.35519419,-3.68628403,CALLE MARIA BARRIENTOS 2 28021,1900-01-01T00:00:00Z,"MU-51"
362369,Arapiles,https://wikidata.org/entity/Q10856744,Chamberí,https://wikidata.org/entity/Q1763370,40.43706715,-3.70438196,CALLE BRAVO MURILLO 32 28015,2021-12-28T00:00:00Z,"MU-51"
362967,Palacio,https://wikidata.org/entity/Q2136510,Centro,https://wikidata.org/entity/Q1763376,40.41192119,-3.71377594,CALLE DON PEDRO 16 28005,1900-01-01T00:00:00Z,"MU-51"
343786,"Villaverde Alto, Casco Histórico de Villaverde",https://wikidata.org/entity/Q390435,Villaverde,https://wikidata.org/entity/Q919536,40.33574219,-3.70146201,CALLE RESINA 27 28021,2021-12-04T00:00:00Z,"MU-51"
364473,Cuatro Caminos,https://wikidata.org/entity/Q5824684,Tetuán,https://wikidata.org/entity/Q1773540,40.44700019,-3.70006804,CALLE DULCINEA 1 28020,1900-01-01T00:00:00Z,"MU-51"
366664,Cuatro Caminos,https://wikidata.org/entity/Q5824684,Tetuán,https://wikidata.org/entity/Q1773540,40.44765418,-3.69587097,CALLE RAIMUNDO FERNANDEZ VILLAVERDE 57B 28003,1900-01-01T00:00:00Z,"MU-51"
366817,Vallehermoso,https://wikidata.org/entity/Q6122685,Chamberí,https://wikidata.org/entity/Q1763370,40.44497917,-3.71575504,CALLE LOMA 2 28003,1900-01-01T00:00:00Z,"MU-51"
378125,Almenara,https://wikidata.org/entity/Q2265427,Tetuán,https://wikidata.org/entity/Q1773540,40.47279318,-3.68872902,CALLE LUIS ESTEBAN 5 28029,1900-01-01T00:00:00Z,"MU-51"
368007,Vallehermoso,https://wikidata.org/entity/Q6122685,Chamberí,https://wikidata.org/entity/Q1763370,40.44272815,-3.71715699,CALLE JULIAN ROMEA 20 28003,1900-01-01T00:00:00Z,"MU-51"
368697,Cuatro Caminos,https://wikidata.org/entity/Q5824684,Tetuán,https://wikidata.org/entity/Q1773540,40.44945514,-3.69541194,CALLE ORENSE 15B 28020,1900-01-01T00:00:00Z,"MU-51"
368841,Arapiles,https://wikidata.org/entity/Q10856744,Chamberí,https://wikidata.org/entity/Q1763370,40.42995918,-3.70583403,GLORIETA RUIZ JIMENEZ 3 28015,1900-01-01T00:00:00Z,"MU-51"
380276,Almagro,https://wikidata.org/entity/Q10954432,Chamberí,https://wikidata.org/entity/Q1763370,40.43267417,-3.69551397,PASEO EDUARDO DATO 2B 28010,1900-01-01T00:00:00Z,"MU-51"
380519,Castillejos,https://wikidata.org/entity/Q11913212,Tetuán,https://wikidata.org/entity/Q1773540,40.46125615,-3.69546297,CALLE FRANCISCO GERVAS 26 28020,1900-01-01T00:00:00Z,"MU-51"
370431,Arapiles,https://wikidata.org/entity/Q10856744,Chamberí,https://wikidata.org/entity/Q1763370,40.43050013,-3.70730097,PLAZA CONDE DEL VALLE DE SUCHIL 6 28015,1900-01-01T00:00:00Z,"MU-51"
372994,Embajadores,https://wikidata.org/entity/Q2449844,Centro,https://wikidata.org/entity/Q1763376,40.41181117,-3.69939103,CALLE TORRECILLA DEL LEAL 1 28012,1900-01-01T00:00:00Z,"MU-51"
383034,Trafalgar,https://wikidata.org/entity/Q10384027,Chamberí,https://wikidata.org/entity/Q1763370,40.43053917,-3.69987904,CALLE FRANCISCO DE ROJAS 14 28010,1900-01-01T00:00:00Z,"MU-51"
374076,Arapiles,https://wikidata.org/entity/Q10856744,Chamberí,https://wikidata.org/entity/Q1763370,40.43255417,-3.70535703,CALLE MAGALLANES 1 28015,1900-01-01T00:00:00Z,"MU-51"
374473,Vallehermoso,https://wikidata.org/entity/Q6122685,Chamberí,https://wikidata.org/entity/Q1763370,40.44281313,-3.71205194,PASEO SAN FRANCISCO DE SALES 42 28003,1900-01-01T00:00:00Z,"MU-51"
375693,Vallehermoso,https://wikidata.org/entity/Q6122685,Chamberí,https://wikidata.org/entity/Q1763370,40.43987418,-3.71090102,AVENIDA FILIPINAS 5 28003,1900-01-01T00:00:00Z,"MU-51"
383904,Universidad,https://wikidata.org/entity/Q10387767,Centro,https://wikidata.org/entity/Q1763376,40.42207816,-3.70700104,CALLE MARQUES DE LEGANES 5 28004,1900-01-01T00:00:00Z,"MU-51"
374972,Embajadores,https://wikidata.org/entity/Q2449844,Centro,https://wikidata.org/entity/Q1763376,40.40871114,-3.70834695,CALLE CARLOS ARNICHES 5 28005,1900-01-01T00:00:00Z,"MU-51"
375361,Universidad,https://wikidata.org/entity/Q10387767,Centro,https://wikidata.org/entity/Q1763376,40.42235021,-3.70090894,CALLE FUENCARRAL 35 28004,1900-01-01T00:00:00Z,"MU-51"
375051,Cortes,https://wikidata.org/entity/Q2535637,Centro,https://wikidata.org/entity/Q1763376,40.4127692,-3.69412694,CALLE HUERTAS 75 28014,1900-01-01T00:00:00Z,"MU-51"
375544,Valdeacederas,https://wikidata.org/entity/Q10388711,Tetuán,https://wikidata.org/entity/Q1773540,40.46815819,-3.69825903,CALLE PINOS ALTA 60 28029,1900-01-01T00:00:00Z,"MU-51"
375933,Trafalgar,https://wikidata.org/entity/Q10384027,Chamberí,https://wikidata.org/entity/Q1763370,40.43471515,-3.69883199,GLORIETA PINTOR SOROLLA 1 28010,1900-01-01T00:00:00Z,"MU-51"
376014,Cortes,https://wikidata.org/entity/Q2535637,Centro,https://wikidata.org/entity/Q1763376,40.41740917,-3.69554199,CALLE MARQUES DE CUBAS 4 28014,1900-01-01T00:00:00Z,"MU-51"
376250,Justicia,https://wikidata.org/entity/Q1992319,Centro,https://wikidata.org/entity/Q1763376,40.42287215,-3.69200403,PASEO RECOLETOS 25 28004,1900-01-01T00:00:00Z,"MU-51"
377044,Justicia,https://wikidata.org/entity/Q1992319,Centro,https://wikidata.org/entity/Q1763376,40.42668718,-3.70028201,CALLE BARCELO 7 28004,1900-01-01T00:00:00Z,"MU-51"
386233,Ríos Rosas,https://wikidata.org/entity/Q10366270,Chamberí,https://wikidata.org/entity/Q1763370,40.44641219,-3.69812897,CALLE RAIMUNDO FERNANDEZ VILLAVERDE 43 28003,1900-01-01T00:00:00Z,"MU-51"
403162,Justicia,https://wikidata.org/entity/Q1992319,Centro,https://wikidata.org/entity/Q1763376,40.42671416,-3.7002,CALLE BARCELO 9 28004,1900-01-01T00:00:00Z,"MU-51"
403636,Embajadores,https://wikidata.org/entity/Q2449844,Centro,https://wikidata.org/entity/Q1763376,40.40628514,-3.69968195,CALLE VALENCIA 32 28012,1900-01-01T00:00:00Z,"MU-51"
403853,Castillejos,https://wikidata.org/entity/Q11913212,Tetuán,https://wikidata.org/entity/Q1773540,40.46210213,-3.69419797,PLAZA ANGEL CARBAJO 8 28020,1900-01-01T00:00:00Z,"MU-51"
387000,Ríos Rosas,https://wikidata.org/entity/Q10366270,Chamberí,https://wikidata.org/entity/Q1763370,40.44422121,-3.69528795,CALLE AGUSTIN DE BETANCOURT 15 28003,2012-06-30T00:00:00Z,"MU-51"
404264,Almenara,https://wikidata.org/entity/Q2265427,Tetuán,https://wikidata.org/entity/Q1773540,40.4727972,-3.699923,AVENIDA ASTURIAS 70 28029,1900-01-01T00:00:00Z,"MU-51"
405463,Ríos Rosas,https://wikidata.org/entity/Q10366270,Chamberí,https://wikidata.org/entity/Q1763370,40.43929715,-3.70071999,CALLE SANTA ENGRACIA 125 28003,1900-01-01T00:00:00Z,"MU-51"
406226,Almenara,https://wikidata.org/entity/Q2265427,Tetuán,https://wikidata.org/entity/Q1773540,40.4673352,-3.69084097,CALLE SAN AQUILINO 2 28029,1900-01-01T00:00:00Z,"MU-51"
389063,Universidad,https://wikidata.org/entity/Q10387767,Centro,https://wikidata.org/entity/Q1763376,40.42193021,-3.70180105,CALLE VALVERDE 22 28004,1900-01-01T00:00:00Z,"MU-51"
407394,Sol,https://wikidata.org/entity/Q2465181,Centro,https://wikidata.org/entity/Q1763376,40.4162302,-3.70782797,CALLE BORDADORES 1 28013,1900-01-01T00:00:00Z,"MU-51"
407416,Cuatro Caminos,https://wikidata.org/entity/Q5824684,Tetuán,https://wikidata.org/entity/Q1773540,40.4526342,-3.70302799,CALLE BRAVO MURILLO 162 28020,1900-01-01T00:00:00Z,"MU-51"
390043,Universidad,https://wikidata.org/entity/Q10387767,Centro,https://wikidata.org/entity/Q1763376,40.43006313,-3.71161198,CALLE ALBERTO AGUILERA 36 28015,1900-01-01T00:00:00Z,"MU-51"
407901,Valdeacederas,https://wikidata.org/entity/Q10388711,Tetuán,https://wikidata.org/entity/Q1773540,40.47064117,-3.709117,CALLE SINESIO DELGADO 23 28029,1900-01-01T00:00:00Z,"MU-38"
390489,Embajadores,https://wikidata.org/entity/Q2449844,Centro,https://wikidata.org/entity/Q1763376,40.40544818,-3.70241895,GLORIETA EMBAJADORES 1 28012,1900-01-01T00:00:00Z,"MU-51"
390649,Palacio,https://wikidata.org/entity/Q2136510,Centro,https://wikidata.org/entity/Q1763376,40.41680213,-3.71084695,CALLE SANTA CLARA 1 28013,1900-01-01T00:00:00Z,"MU-51"
408552,Berruguete,https://wikidata.org/entity/Q11909208,Tetuán,https://wikidata.org/entity/Q1773540,40.46211718,-3.70147899,CALLE MARQUES DE VIANA 41 28039,1900-01-01T00:00:00Z,"MU-51"
390926,Almenara,https://wikidata.org/entity/Q2265427,Tetuán,https://wikidata.org/entity/Q1773540,40.47320513,-3.69656596,CALLE VIA LIMITE 12A 28029,1900-01-01T00:00:00Z,"MU-51"
408997,Vallehermoso,https://wikidata.org/entity/Q6122685,Chamberí,https://wikidata.org/entity/Q1763370,40.44658216,-3.71816302,AVENIDA MONCLOA 17 28003,1900-01-01T00:00:00Z,"MU-51"
391617,Universidad,https://wikidata.org/entity/Q10387767,Centro,https://wikidata.org/entity/Q1763376,40.42191821,-3.70640397,CALLE LIBREROS 14 28004,1900-01-01T00:00:00Z,"MU-51"
410670,Ríos Rosas,https://wikidata.org/entity/Q10366270,Chamberí,https://wikidata.org/entity/Q1763370,40.44114917,-3.69378205,PLAZA SAN JUAN DE LA CRUZ 3 28003,1900-01-01T00:00:00Z,"MU-51"
411384,Sol,https://wikidata.org/entity/Q2465181,Centro,https://wikidata.org/entity/Q1763376,40.4200362,-3.70574304,PLAZA CALLAO 3 28013,2013-10-30T00:00:00Z,"MU-51"
411884,Palacio,https://wikidata.org/entity/Q2136510,Centro,https://wikidata.org/entity/Q1763376,40.41503114,-3.71436796,CALLE MAYOR 85 28013,1900-01-01T00:00:00Z,"MU-51"
393568,Almagro,https://wikidata.org/entity/Q10954432,Chamberí,https://wikidata.org/entity/Q1763370,40.42952414,-3.69138796,CALLE ZURBARAN 21 28010,2011-05-30T00:00:00Z,"MU-51"
412624,Gaztambide,https://wikidata.org/entity/Q10288587,Chamberí,https://wikidata.org/entity/Q1763370,40.43770421,-3.71514695,CALLE JOAQUIN MARIA LOPEZ 50 28015,1900-01-01T00:00:00Z,"MU-51"
413024,Berruguete,https://wikidata.org/entity/Q11909208,Tetuán,https://wikidata.org/entity/Q1773540,40.45778617,-3.70173705,CALLE NUESTRA SEÑORA DEL CARMEN 3 28039,1900-01-01T00:00:00Z,"MU-51"
394856,Bellas Vistas,https://wikidata.org/entity/Q11908929,Tetuán,https://wikidata.org/entity/Q1773540,40.45627014,-3.71184394,CALLE ALEJANDRO RODRIGUEZ 39 28039,1900-01-01T00:00:00Z,"MU-51"
398121,Almenara,https://wikidata.org/entity/Q2265427,Tetuán,https://wikidata.org/entity/Q1773540,40.46895116,-3.69766104,PLAZA DONOSO 5 28029,1900-01-01T00:00:00Z,"MU-51"
416199,Cortes,https://wikidata.org/entity/Q2535637,Centro,https://wikidata.org/entity/Q1763376,40.41475621,-3.701297,PLAZA SANTA ANA 16 28012,1900-01-01T00:00:00Z,"MU-51"
398527,Almenara,https://wikidata.org/entity/Q2265427,Tetuán,https://wikidata.org/entity/Q1773540,40.46846119,-3.69022897,CALLE SAN BENITO 6 28029,1900-01-01T00:00:00Z,"MU-51"
398542,Almagro,https://wikidata.org/entity/Q10954432,Chamberí,https://wikidata.org/entity/Q1763370,40.43521118,-3.69247101,PASEO GENERAL MARTINEZ CAMPOS 37 28010,1900-01-01T00:00:00Z,"MU-51"
399537,Universidad,https://wikidata.org/entity/Q10387767,Centro,https://wikidata.org/entity/Q1763376,40.4270192,-3.70442696,PLAZA DOS DE MAYO 3 28004,1900-01-01T00:00:00Z,"MU-51"
400721,Gaztambide,https://wikidata.org/entity/Q10288587,Chamberí,https://wikidata.org/entity/Q1763370,40.43420316,-3.71312902,CALLE FERNANDO EL CATOLICO 52 28015,1900-01-01T00:00:00Z,"MU-51"
419743,Ríos Rosas,https://wikidata.org/entity/Q10366270,Chamberí,https://wikidata.org/entity/Q1763370,40.44331413,-3.691918,PASEO CASTELLANA 65 28046,1900-01-01T00:00:00Z,"MU-51"
401183,Valdeacederas,https://wikidata.org/entity/Q10388711,Tetuán,https://wikidata.org/entity/Q1773540,40.46811314,-3.69825903,CALLE PINOS ALTA 63 28029,1900-01-01T00:00:00Z,"MU-51"
388289,Arapiles,https://wikidata.org/entity/Q10856744,Chamberí,https://wikidata.org/entity/Q1763370,40.42996915,-3.70580996,CALLE SAN BERNARDO 93 28015,1900-01-01T00:00:00Z,"MU-51"
406030,Valdeacederas,https://wikidata.org/entity/Q10388711,Tetuán,https://wikidata.org/entity/Q1773540,40.46829716,-3.71250999,CALLE VILLAAMIL 263 28039,1900-01-01T00:00:00Z,"MU-51"
389498,Vallehermoso,https://wikidata.org/entity/Q6122685,Chamberí,https://wikidata.org/entity/Q1763370,40.44088013,-3.70828702,AVENIDA FILIPINAS 32 28003,1900-01-01T00:00:00Z,"MU-51"
407320,Almenara,https://wikidata.org/entity/Q2265427,Tetuán,https://wikidata.org/entity/Q1773540,40.46643121,-3.69182502,CALLE CONDE DEL SERRALLO 4 28029,1900-01-01T00:00:00Z,"MU-51"
407967,Valdeacederas,https://wikidata.org/entity/Q10388711,Tetuán,https://wikidata.org/entity/Q1773540,40.47125514,-3.70487295,CALLE SINESIO DELGADO 28 28029,1900-01-01T00:00:00Z,"MU-38"
410390,Palacio,https://wikidata.org/entity/Q2136510,Centro,https://wikidata.org/entity/Q1763376,40.41503018,-3.71434897,CALLE MAYOR 83 28013,1900-01-01T00:00:00Z,"MU-51"
392356,Ríos Rosas,https://wikidata.org/entity/Q10366270,Chamberí,https://wikidata.org/entity/Q1763370,40.44620017,-3.69889598,CALLE RAIMUNDO FERNANDEZ VILLAVERDE 32 28003,1900-01-01T00:00:00Z,"MU-51"
